;data_inversa;uf;municipio;br;km;latitude;longitude;acidentes
0;2024-01-01;ES;CONCEICAO DA BARRA;101;38;-18.48261;-39.92379;3
1;2024-01-01;PI;PIRIPIRI;343;185;-4.29603281;-41.76732659;2
2;2024-01-01;BA;BREJOES;116;578;-13.07158302;-39.9611107;9
3;2024-01-01;SE;MALHADA DOS BOIS;101;18;-10.35601949;-36.90552235;3
4;2024-01-01;MT;RONDONOPOLIS;364;240;-16.17914141;-54.78905337;10
5;2024-01-01;MG;GRAO MOGOL;251;447;-16.43408996;-43.27992195;6
6;2024-01-01;BA;VITORIA DA CONQUISTA;116;852,9;-15.0196651;-40.94931289;8
7;2024-01-01;MG;GRAO MOGOL;251;459,7;-16.41473399;-43.368613;6
8;2024-01-01;SP;BARRA DO TURVO;116;550;-24.95749618;-48.46440871;10
9;2024-01-01;MG;CAMPOS ALTOS;262;594,4;-19.66568189;-46.16901785;1
10;2024-01-01;MT;CUIABA;364;396;-15.69004774;-55.90523988;10
11;2024-01-01;PR;ORTIGUEIRA;376;327;-24.06593407;-51.0643217;3
12;2024-01-01;MS;BANDEIRANTES;163;551;-19.89996489;-54.37326248;3
13;2024-01-01;MT;ROSARIO OESTE;364;542;-14.84114829;-56.44175649;2
14;2024-01-01;BA;ITABELA;101;733;-16.489273;-39.577433;8
15;2024-01-01;RS;TRES CACHOEIRAS;101;22;-29.4398072;-49.90113887;19
16;2024-01-01;PA;ULIANOPOLIS;10;83,3;-3.721266;-47.48965;4
17;2024-01-02;GO;JARAGUA;153;356;-15.716531;-49.329445;8
18;2024-01-02;SP;SAO JOSE DOS CAMPOS;116;134;-23.1402216;-45.7617252;23
19;2024-01-02;RJ;DUQUE DE CAXIAS;40;84;-22.52145512;-43.23707996;11
20;2024-01-02;BA;TANQUINHO;324;470;-11.96401516;-39.14447808;11
21;2024-01-02;MS;PARANAIBA;158;56;-19.41028002;-51.39686402;4
22;2024-01-02;MG;POCOS DE CALDAS;146;483;-21.775688;-46.432278;1
23;2024-01-02;RJ;PETROPOLIS;40;76;-22.47192899;-43.23779321;4
24;2024-01-02;MS;CAMPO GRANDE;163;475;-20.51838231;-54.56658567;6
25;2024-01-01;BA;PALMEIRAS;242;366;-12.46767097;-41.43877801;4
26;2024-01-02;PB;CAAPORA;101;117;-7.41357983;-34.95743528;8
27;2024-01-02;MA;SANTA RITA;135;66;-3.10577998;-44.32276839;2
28;2024-01-02;MG;MONTES CLAROS;251;522,2;-16.6754567;-43.7987724;25
29;2024-01-02;MG;CLARO DOS POCOES;365;29,9;-16.83985022;-44.09475095;3
30;2024-01-02;RS;LAGOA VERMELHA;470;53,7;-28.203287;-51.525436;15
31;2024-01-02;MA;SAO LUIS;135;3;-2.606802;-44.247512;4
32;2024-01-02;PI;TERESINA;343;335;-5.061626;-42.696655;4
33;2024-01-02;MT;CACERES;174;90;-15.90673513;-57.8088112;3
34;2024-01-02;PI;INHUMA;316;245,5;-6.68806401;-41.71950685;5
35;2024-01-02;BA;GOVERNADOR MANGABEIRA;101;207,1;-12.64502829;-39.1034317;5
36;2024-01-02;RS;SOLEDADE;386;250;-28.826591;-52.46851;2
37;2024-01-02;SC;HERVAL DOESTE;282;376,6;-27.220205;-51.461185;3
38;2024-01-02;SC;JOINVILLE;101;48,4;-26.37832466;-48.851915;3
39;2024-01-02;PR;GUARAPUAVA;277;315;-25.30825309;-51.20948921;14
40;2024-01-02;RS;MINAS DO LEAO;290;188;-30.153578;-52.093895;2
41;2024-01-02;SE;FREI PAULO;235;87,3;-10.55439376;-37.63555527;3
42;2024-01-02;MS;JUTI;163;176;-22.85265558;-54.64650283;9
43;2024-01-02;PE;IGARASSU;101;46;-7.87347824;-34.90595698;4
44;2024-01-02;SC;PALHOCA;101;240,7;-27.86671599;-48.64607012;6
45;2024-01-02;SC;AGUAS MORNAS;282;51,8;-27.703712;-48.959267;10
46;2024-01-02;PE;PALMARES;101;198;-8.76148765;-35.60636203;1
47;2024-01-02;TO;PARAISO DO TOCANTINS;153;511,1;-10.300374;-48.884213;6
48;2024-01-02;PR;PONTA GROSSA;376;503,5;-25.22314697;-50.05150696;7
49;2024-01-02;PR;IMBAU;376;389;-24.51777497;-50.71118238;4
50;2024-01-02;GO;CAIAPONIA;158;130;-16.71416211;-51.68249564;8
51;2024-01-02;SC;JOINVILLE;101;41;-26.31856259;-48.87180626;6
52;2024-01-02;SP;BARRA DO TURVO;116;545;-24.95016699;-48.42400302;32
53;2024-01-02;SC;JOINVILLE;101;41,8;-26.32314005;-48.86839449;3
54;2024-01-03;SP;VARGEM;381;10;-22.92240388;-46.44345503;12
55;2024-01-02;SC;JOINVILLE;101;41;-26.28215489;-48.88973081;33
56;2024-01-03;PB;RIACHAO DO BACAMARTE;230;123,2;-7.25545435;-35.67290783;4
57;2024-01-03;MA;BOM JESUS DAS SELVAS;222;532;-4.29916976;-46.49522097;2
58;2024-01-03;RS;GARIBALDI;470;225;-29.21454003;-51.51762617;26
59;2024-01-03;MA;IMPERATRIZ;10;267;-5.400108;-47.473038;3
60;2024-01-03;MG;EWBANK DA CAMARA;40;757,1;-21.54346938;-43.51182461;7
61;2024-01-03;RJ;SILVA JARDIM;101;216;-22.50804478;-42.28281706;3
62;2024-01-02;BA;ALAGOINHAS;110;321;-12.07521394;-38.34597792;6
63;2024-01-03;BA;FEIRA DE SANTANA;324;526;-12.30639712;-38.89051509;28
64;2024-01-03;MG;JOAO MONLEVADE;381;351;-19.85819343;-43.123312;3
65;2024-01-03;MT;RONDONOPOLIS;364;204;-16.467325;-54.657196;16
66;2024-01-03;SC;SAO JOSE;101;209,8;-27.61000542;-48.63895057;76
67;2024-01-03;RJ;TERESOPOLIS;116;80;-22.381704;-42.954777;5
68;2024-01-03;SP;NOVA GRANADA;153;19,6;-20.45211107;-49.28473186;4
69;2024-01-03;PE;GARANHUNS;423;91;-8.85375408;-36.46278381;9
70;2024-01-03;MT;AGUA BOA;158;536;-13.80730502;-52.03950938;4
71;2024-01-03;RS;TERRA DE AREIA;101;46,8;-29.57664003;-50.06327396;1
72;2024-01-03;TO;ARAGUAINA;153;143;-7.18866332;-48.23207966;9
73;2024-01-03;MG;LEOPOLDINA;116;766,8;-21.5271992;-42.65302264;2
74;2024-01-03;PR;IMBITUVA;373;226;-25.17202656;-50.62984094;4
75;2024-01-03;SP;SAO JOSE DO RIO PRETO;153;58,5;-20.77838195;-49.35300538;9
76;2024-01-03;SP;GUARATINGUETA;116;67,4;-22.82988582;-45.21222174;3
77;2024-01-03;MA;SAO LUIS;135;4;-2.61424881;-44.25257023;12
78;2024-01-03;GO;APARECIDA DE GOIANIA;153;514;-16.8315;-49.2434;17
79;2024-01-03;RJ;SAPUCAIA;393;143;-22.02408891;-42.97247704;5
80;2024-01-03;PA;SAO FRANCISCO DO PARA;316;86,5;-1.31324695;-47.72716999;3
81;2024-01-03;PR;MORRETES;277;36,2;-25.571061;-48.837243;2
82;2024-01-03;BA;CRISTOPOLIS;242;690;-12.223;-44.114;2
83;2024-01-03;PB;ALCANTIL;104;191,6;-7.726364;-36.074449;7
84;2024-01-03;AL;TEOTONIO VILELA;101;171,9;-9.90913698;-36.33473799;1
85;2024-01-03;GO;ANAPOLIS;60;95,4;-16.3679;-48.939;12
86;2024-01-03;GO;GOIANIA;153;497;-16.6854;-49.2338;25
87;2024-01-03;MG;SAO FRANCISCO DO GLORIA;116;660,8;-20.79372285;-42.30204025;1
88;2024-01-03;MS;TRES LAGOAS;262;71;-20.67308;-52.247199;4
89;2024-01-03;SP;BARRA DO TURVO;116;538;-24.97172153;-48.37309592;10
90;2024-01-03;MG;ARGIRITA;267;31;-21.64465779;-42.8469463;8
91;2024-01-03;MG;PADRE CARVALHO;251;349,6;-16.26062829;-42.52564716;3
92;2024-01-03;SC;VARGEM BONITA;282;420;-27.014505;-51.736427;3
93;2024-01-03;MG;LEOPOLDINA;116;776,9;-21.59632074;-42.69196405;19
94;2024-01-03;BA;TUCANO;116;277;-10.98605827;-38.80013655;4
95;2024-01-03;TO;RIO DOS BOIS;153;392;-9.346141;-48.53745;9
96;2024-01-03;PR;CANDOI;277;397,9;-25.458796;-51.95237;3
97;2024-01-03;PR;MATELANDIA;277;660,9;-25.25275526;-53.99939905;6
98;2024-01-03;PB;SAO BENTINHO;230;390;-6.8946;-37.7176;6
99;2024-01-04;SC;BALNEARIO CAMBORIU;101;127,8;-26.97284292;-48.68299451;15
100;2024-01-04;RJ;SEROPEDICA;465;8;-22.767147;-43.678768;12
101;2024-01-04;GO;CAMPINORTE;153;175,7;-14.301579;-49.14817;8
102;2024-01-03;SP;BARRA DO TURVO;116;561;-25.02045097;-48.51586004;58
103;2024-01-04;MT;VARZEA GRANDE;70;511,9;-15.6998741;-56.11389041;4
104;2024-01-04;BA;SAO DESIDERIO;20;77;-13;-46;16
105;2024-01-04;TO;GUARAI;153;323;-8.6488351;-48.49241668;11
106;2024-01-04;GO;RIO VERDE;60;392;-17.8266;-50.9789;12
107;2024-01-03;RJ;PETROPOLIS;40;78;-22.48485874;-43.22843406;17
108;2024-01-04;SP;BARRA DO TURVO;116;559;-25.00749102;-48.5074244;1
109;2024-01-04;PE;GRAVATA;232;79,6;-8.19460572;-35.56074803;18
110;2024-01-04;RO;PORTO VELHO;364;701;-8.80049198;-63.777876;6
111;2024-01-04;SC;BARRA VELHA;101;95;-26.70876413;-48.70221065;21
112;2024-01-04;BA;NOVA VICOSA;418;96;-17.886432;-39.87806;6
113;2024-01-04;RJ;VOLTA REDONDA;393;281,9;-22.48025569;-44.02974901;15
114;2024-01-04;CE;IPAUMIRIM;116;428;-6.842189;-38.737572;1
115;2024-01-04;MG;BETIM;381;495,5;-19.97528481;-44.18872833;5
116;2024-01-04;PE;PETROLINA;428;190,9;-9.37605965;-40.49382106;11
117;2024-01-04;BA;ITABELA;101;750;-16.61845595;-39.54151381;6
118;2024-01-04;MG;ITABIRITO;40;582,2;-20.31516976;-43.93518448;4
119;2024-01-04;MG;SAO JOAO DO MANHUACU;116;600,1;-20.33157703;-42.14776317;6
120;2024-01-04;RO;VILHENA;364;25,2;-12.72429829;-60.23883701;4
121;2024-01-04;SC;CHAPECO;282;543,6;-26.999392;-52.717831;2
122;2024-01-04;PR;MANDAGUACU;376;154,5;-23.33436517;-52.11052537;2
123;2024-01-04;RN;TAIPU;406;129;-5.62175155;-35.60784817;2
124;2024-01-04;PR;PIRAQUARA;116;85;-25.43036239;-49.08349472;9
125;2024-01-04;SC;CONCORDIA;153;111,2;-27.319271;-51.983299;13
126;2024-01-04;MG;ITABIRITO;40;580;-20.29439498;-43.93886497;5
127;2024-01-04;PE;RECIFE;232;4,4;-8.06602;-34.940719;3
128;2024-01-04;MG;FRANCISCO SA;251;476,6;-16.47189251;-43.46079826;13
129;2024-01-04;RJ;DUQUE DE CAXIAS;40;123;-22.79907687;-43.29015739;67
130;2024-01-04;PR;CAMPINA GRANDE DO SUL;116;14;-25.09836429;-48.67391969;2
131;2024-01-04;SP;BARRA DO TURVO;116;569;-25.0601693;-48.5620203;10
132;2024-01-04;RJ;ANGRA DOS REIS;101;506;-22.93493041;-44.40487313;4
133;2024-01-04;GO;FLORES DE GOIAS;20;138;-14.786891;-46.694374;2
134;2024-01-01;SC;MONTE CASTELO;116;114,9;-26.8005932;-50.3387598;1
135;2024-01-04;PE;CARUARU;104;65;-8.2867;-35.9838;14
136;2024-01-04;PR;MAUA DA SERRA;376;303;-23.94940698;-51.11940888;20
137;2024-01-04;MG;FRUTA DE LEITE;251;342,5;-16.25627071;-42.49108406;7
138;2024-01-04;PR;VIRMOND;277;438;-25.37761487;-52.23805398;2
139;2024-01-04;PR;MAUA DA SERRA;376;302;-23.94255214;-51.12285589;6
140;2024-01-04;CE;CAUCAIA;222;21;-3.73715313;-38.74293507;8
141;2024-01-05;PR;CONTENDA;476;168;-25.66806408;-49.49847221;4
142;2024-01-05;MG;BETIM;262;358,7;-19.97562699;-44.197751;7
143;2024-01-05;MG;POUSO ALEGRE;381;862,1;-22.37453071;-45.93949727;2
144;2024-01-05;ES;LINHARES;101;102;-18.99655669;-40.00319452;6
145;2024-01-05;GO;SAO FRANCISCO DE GOIAS;153;376,1;-15.876122;-49.249722;5
146;2024-01-05;ES;VIANA;101;299;-20.35860628;-40.42327504;18
147;2024-01-05;ES;SERRA;101;278,9;-20.21698365;-40.32974606;10
148;2024-01-05;PR;TIJUCAS DO SUL;376;657,3;-25.85304449;-49.02168274;8
149;2024-01-05;MT;DIAMANTINO;364;587;-14.5333676;-56.23046993;3
150;2024-01-05;SC;ITAJAI;101;114;-26.86192886;-48.7286704;36
151;2024-01-05;RJ;RIO DE JANEIRO;101;333;-22.87827816;-43.21053578;27
152;2024-01-05;SC;BOM RETIRO;282;151,3;-27.7628;-49.669552;4
153;2024-01-05;RS;PASSO FUNDO;285;293,1;-28.23695191;-52.37405777;5
154;2024-01-05;PR;ORTIGUEIRA;376;345;-24.17616447;-50.96491635;6
155;2024-01-05;RJ;DUQUE DE CAXIAS;116;144;-22.65737709;-43.24724694;12
156;2024-01-05;PR;PONTA GROSSA;376;498;-25.18839776;-50.0846328;8
157;2024-01-05;BA;ABARE;116;26;-8.850426;-39.259525;6
158;2024-01-05;RJ;DUQUE DE CAXIAS;493;54;-22.67072907;-43.29986572;8
159;2024-01-05;PE;GOIANA;101;4;-7.533512;-34.991547;5
160;2024-01-05;GO;GOIANIA;60;38,8;-16.6777;-49.2676;13
161;2024-01-05;SC;JOINVILLE;101;37,4;-26.25050176;-48.90863867;21
162;2024-01-05;SP;GUARULHOS;116;223;-23.47559815;-46.5246609;81
163;2024-01-05;BA;CANDIDO SALES;116;893,9;-15.38437;-41.20159;12
164;2024-01-05;PA;ITAITUBA;163;653;-4.50624587;-55.86575279;6
165;2024-01-05;RJ;MANGARATIBA;101;437;-22.94811517;-44.06549304;3
166;2024-01-05;RJ;RIO BONITO;101;267;-22.70728329;-42.66059086;11
167;2024-01-05;SC;BIGUACU;101;179,2;-27.37281717;-48.63322708;12
168;2024-01-05;PR;MAUA DA SERRA;376;307,7;-23.95032206;-51.1190629;2
169;2024-01-05;GO;ABADIA DE GOIAS;60;173,7;-16.74630768;-49.42199707;4
170;2024-01-05;GO;CATALAO;50;273;-18.1302;-47.9047;2
171;2024-01-05;PR;ORTIGUEIRA;376;308;-23.97857518;-51.09540715;9
172;2024-01-05;MT;ALTO GARCAS;364;118;-16.86779789;-53.88686657;1
173;2024-01-05;SC;GARUVA;101;12,2;-26.09803515;-48.86773972;7
174;2024-01-06;GO;JATAI;364;208;-17.904121;-51.828594;3
175;2024-01-06;AL;TEOTONIO VILELA;101;165,9;-9.8996779;-36.283047;5
176;2024-01-06;MG;GUIMARANIA;365;441,6;-18.79969152;-46.75281307;3
177;2024-01-06;MG;CARAI;116;199;-17.23536898;-41.49650703;5
178;2024-01-06;GO;GOIATUBA;153;670;-18.1413;-49.2886;1
179;2024-01-06;MA;SAO JOAO DOS PATOS;230;83,4;-6.49053762;-43.62915604;3
180;2024-01-06;BA;CONCEICAO DO ALMEIDA;101;230;-12.83551106;-39.20129659;7
181;2024-01-06;SP;MAIRIPORA;381;57;-23.2658219;-46.5839857;12
182;2024-01-06;SC;CORREIA PINTO;116;218,5;-27.57407;-50.37174;5
183;2024-01-06;BA;CANDIDO SALES;116;909;-15.51216036;-41.23666763;7
184;2024-01-06;GO;SANTA RITA DO ARAGUAIA;364;379,7;-17.361963;-53.149731;4
185;2024-01-06;RS;SALVADOR DAS MISSOES;392;673,7;-28.11989652;-54.84627664;4
186;2024-01-06;MA;ESTREITO;10;119;-6.6282912;-47.42359132;3
187;2024-01-06;BA;JEREMOABO;235;60;-10.08929173;-38.18273974;2
188;2024-01-06;MG;SANTA LUZIA;381;444;-19.82360393;-43.82539293;4
189;2024-01-06;CE;SAO GONCALO DO AMARANTE;222;62;-3.67147075;-39.09840501;7
190;2024-01-06;PE;CARUARU;232;139;-8.31947086;-36.06799801;5
191;2024-01-06;SP;ATIBAIA;381;43;-23.15597105;-46.5740155;9
192;2024-01-06;MG;BETIM;381;483;-19.95963614;-44.08476988;2
193;2024-01-06;RJ;TERESOPOLIS;116;55;-22.20348855;-42.88843108;10
194;2024-01-06;RS;CANGUCU;392;119;-31.39884811;-52.68472032;8
195;2024-01-06;AL;RIO LARGO;101;86,6;-9.47238667;-35.88083026;3
196;2024-01-06;TO;TUPIRAMA;235;187;-8.97492336;-48.358959;3
197;2024-01-06;RJ;BARRA MANSA;116;285;-22.50496778;-44.22509483;4
198;2024-01-06;PR;CANTAGALO;277;413,9;-25.41534;-52.074921;5
199;2024-01-06;MG;MATEUS LEME;262;381;-19.940622;-44.386969;6
200;2024-01-06;MG;CAETE;381;432,8;-19.786624;-43.714648;10
201;2024-01-06;BA;ITABERABA;242;245;-12.501217;-40.428325;1
202;2024-01-06;RO;ARIQUEMES;364;530;-9.798182;-63.08591499;8
203;2024-01-06;PB;ASSUNCAO;230;256,2;-7.0177;-36.6742;6
204;2024-01-06;MT;SINOP;163;838;-11.83003306;-55.48726559;7
205;2024-01-06;MA;CAXIAS;316;567;-4.911043;-43.225277;3
206;2024-01-06;SP;CAJATI;116;513;-24.85109616;-48.21802405;24
207;2024-01-06;RO;VILHENA;364;14;-12.73898138;-60.13911417;29
208;2024-01-06;MG;UBERLANDIA;365;622;-18.89589256;-48.27156544;3
209;2024-01-06;MT;PEDRA PRETA;364;136;-16.8143072;-54.07950613;2
210;2024-01-06;MG;RIBEIRAO DAS NEVES;40;505,4;-19.74053;-44.14891;2
211;2024-01-06;MS;RIO VERDE DE MATO GROSSO;163;678;-18.94110596;-54.82984864;7
212;2024-01-07;PR;MARECHAL CANDIDO RONDON;163;294,5;-24.500189;-54.125806;3
213;2024-01-07;TO;MIRACEMA DO TOCANTINS;153;428,8;-9.65283;-48.64251;8
214;2024-01-07;MA;ACAILANDIA;10;316;-4.982702;-47.522224;6
215;2024-01-07;TO;CARIRI DO TOCANTINS;153;716,2;-12.09169576;-49.19398785;6
216;2024-01-07;MG;CATUJI;116;221,7;-17.41543302;-41.51420574;3
217;2024-01-06;RS;CRUZ ALTA;158;211,2;-28.78294784;-53.59925344;2
218;2024-01-07;MG;POUSO ALEGRE;381;864,5;-22.38483528;-45.95062148;2
219;2024-01-07;GO;GOIATUBA;153;653;-17.9926;-49.2601;5
220;2024-01-07;MA;ACAILANDIA;222;652;-4.83750775;-47.28653915;10
221;2024-01-07;GO;JATAI;364;248;-17.734665;-52.137199;8
222;2024-01-07;SP;MIRACATU;116;364;-24.13881806;-47.27310246;5
223;2024-01-07;MG;FRANCISCO SA;251;471,5;-16.46801304;-43.43121303;6
224;2024-01-07;RS;SARANDI;386;110,2;-27.79747664;-53.05267811;2
225;2024-01-07;RJ;TRES RIOS;393;151;-22.06019504;-43.02885795;2
226;2024-01-07;GO;JATAI;364;199;-17.920801;-51.748596;5
227;2024-01-07;BA;IBIRAPITANGA;101;396,2;-13.988666;-39.4644;2
228;2024-01-07;RO;VILHENA;364;12,8;-12.74370233;-60.12147609;26
229;2024-01-07;MG;PARAOPEBA;40;426;-19.16811528;-44.51542722;3
230;2024-01-07;GO;FLORES DE GOIAS;20;143,9;-14.751895;-46.65666;8
231;2024-01-07;PR;MARINGA;376;181,9;-23.43111902;-51.88842773;4
232;2024-01-07;MG;BRUMADINHO;381;525,5;-20.16710798;-44.33422398;40
233;2024-01-07;GO;BOM JESUS DE GOIAS;452;154,5;-18.29856164;-49.55412505;3
234;2024-01-08;MG;BRUMADINHO;381;524,5;-20.160736;-44.329843;6
235;2024-01-08;MG;JOAO MONLEVADE;381;358;-19.8381719;-43.18513155;5
236;2024-01-08;MG;UBERABA;50;136;-19.44189098;-48.06412595;16
237;2024-01-08;MG;CAXAMBU;354;710,6;-22.03251698;-44.92520109;4
238;2024-01-08;ES;SERRA;101;271,8;-20.23267;-40.27658;23
239;2024-01-08;MG;CONSELHEIRO LAFAIETE;40;638,2;-20.73016759;-43.80036592;3
240;2024-01-08;PR;IMBITUVA;373;228,1;-25.174608;-50.639412;4
241;2024-01-08;PA;SANTA IZABEL DO PARA;316;36,4;-1.29009976;-48.15602469;15
242;2024-01-08;PI;TERESINA;316;7;-5.15584638;-42.77173332;21
243;2024-01-08;RS;NOVO HAMBURGO;116;238;-29.68954125;-51.14299357;2
244;2024-01-08;PR;MARINGA;376;171;-23.41822772;-51.97500595;2
245;2024-01-08;MG;BETIM;262;483;-19.95972;-44.08279;4
246;2024-01-07;BA;NOVA FATIMA;324;412;-11.65623736;-39.57823535;2
247;2024-01-08;RJ;PETROPOLIS;40;72;-22.4585308;-43.21600514;15
248;2024-01-05;TO;FIGUEIROPOLIS;153;724;-12.15456392;-49.16381675;8
249;2024-01-08;PR;CURITIBA;116;113,9;-25.54633;-49.29371774;3
250;2024-01-08;RS;CARAZINHO;386;165;-28.197134;-52.827736;8
251;2024-01-08;SC;BIGUACU;101;182,8;-27.39798985;-48.6303592;3
252;2024-01-08;PB;CAMPINA GRANDE;104;130,5;-7.29013399;-35.89029705;8
253;2024-01-08;MT;LUCAS DO RIO VERDE;163;653;-13.357991;-56.063093;10
254;2024-01-08;MA;SAO LUIS;135;7;-2.63608835;-44.26848552;34
255;2024-01-08;BA;VITORIA DA CONQUISTA;116;12;-14.8794;-40.871;2
256;2024-01-08;RS;SANTA MARIA;158;321;-29.69618923;-53.77768993;7
257;2024-01-08;PR;PALMEIRA;277;153;-25.3826;-49.8072;1
258;2024-01-01;MG;PATROCINIO;365;497;-18.93260407;-47.21402188;3
259;2024-01-08;MT;NOVA MUTUM;163;526;-14;-56;3
260;2024-01-08;DF;BRASILIA;20;13;-15.638752;-47.749599;28
261;2024-01-08;PE;JABOATAO DOS GUARARAPES;101;83;-8.175172;-34.942642;12
262;2024-01-08;PR;SAO MATEUS DO SUL;476;305;-26.008085;-50.606007;4
263;2024-01-08;RJ;DUQUE DE CAXIAS;493;53;-22.672089;-43.285053;52
264;2024-01-08;SC;BLUMENAU;470;59;-26.882812;-49.1548;12
265;2024-01-08;SP;APARECIDA;116;75,3;-22.87521876;-45.26277018;3
266;2024-01-08;RN;GOIANINHA;101;153;-6.31748925;-35.18316143;6
267;2024-01-08;SC;ITAJAI;101;118;-26.895859;-48.71903;39
268;2024-01-08;MT;CUIABA;70;500;-15.69269363;-56.02082318;2
269;2024-01-08;RJ;SAO JOAO DE MERITI;116;175;-22.78923555;-43.37275272;31
270;2024-01-08;MG;PATOS DE MINAS;365;418,5;-18.68353;-46.57658;8
271;2024-01-09;GO;LUZIANIA;40;42,7;-16.382882;-47.826516;6
272;2024-01-09;RS;CANGUCU;392;159;-31.11765607;-52.91283703;2
273;2024-01-09;PE;BELO JARDIM;232;174;-8.3397857;-36.37821402;1
274;2024-01-09;PB;MAMANGUAPE;101;11,7;-6.59461177;-35.14474869;3
275;2024-01-09;GO;ITUMBIARA;452;160;-18.30930595;-49.50609398;3
276;2024-01-09;BA;SAO FELIX;101;201;-12.59315137;-38.98821104;2
277;2024-01-09;MA;ITAPECURU MIRIM;222;194;-3.47080416;-44.27442103;7
278;2024-01-08;MT;NOVA SANTA HELENA;163;958;-10.94791298;-55.21455004;3
279;2024-01-09;SP;PINDAMONHANGABA;116;95,6;-22.96514512;-45.43013094;6
280;2024-01-09;MG;BETIM;381;486;-19.95644414;-44.13611598;78
281;2024-01-09;TO;GUARAI;153;315;-8.66608611;-48.49739061;6
282;2024-01-09;RJ;SILVA JARDIM;101;237;-22.61465396;-42.41257441;1
283;2024-01-08;BA;IBIQUERA;242;305;-12.46480529;-40.93284793;4
284;2024-01-09;PR;CORBELIA;369;470;-24.583;-53.1677;2
285;2024-01-09;RS;TRIUNFO;470;329,8;-29.833622;-51.68580892;2
286;2024-01-09;BA;SAO GONCALO DOS CAMPOS;101;178;-12.519078;-38.970829;16
287;2024-01-09;BA;CORRENTINA;349;940;-13.34775335;-44.63734466;14
288;2024-01-09;SP;BRAGANCA PAULISTA;381;25;-23.02018004;-46.52966596;26
289;2024-01-09;CE;SAO GONCALO DO AMARANTE;222;65,7;-3.67074776;-39.12494698;3
290;2024-01-09;MG;GOVERNADOR VALADARES;381;175,5;-19.00400926;-42.12942879;12
291;2024-01-09;RO;COLORADO DO OESTE;435;107;-13.19112095;-60.669045;8
292;2024-01-09;RJ;DUQUE DE CAXIAS;493;52;-22.66882828;-43.31325531;5
293;2024-01-09;MT;JACIARA;364;270,6;-15.9689785;-54.94463002;23
294;2024-01-09;PR;RIO NEGRO;116;201,3;-26.0574904;-49.7263052;3
295;2024-01-09;PA;TRAIRAO;163;617;-4.73795095;-56.05091106;14
296;2024-01-09;MG;MONTE ALEGRE DE MINAS;153;56,3;-18.86514031;-49.06925029;3
297;2024-01-09;MS;NOVA ANDRADINA;267;146,5;-21.65659582;-53.4462169;18
298;2024-01-09;SP;TAUBATE;116;106,1;-23.01250593;-45.52256005;15
299;2024-01-09;BA;NOVA FATIMA;324;404;-11.60427899;-39.6312174;7
300;2024-01-09;SC;BLUMENAU;470;47,4;-26.864044;-49.046516;21
301;2024-01-09;MT;RONDONOPOLIS;163;114,4;-16.54595325;-54.67086252;7
302;2024-01-09;MT;GENERAL CARNEIRO;70;86,5;-15.62175737;-52.85223412;8
303;2024-01-09;SC;PALHOCA;101;215;-27.65184843;-48.67604941;54
304;2024-01-09;PB;ALHANDRA;101;110;-7.35255626;-34.94940909;6
305;2024-01-09;SP;UBARANA;153;119,9;-21.16208007;-49.71112986;12
306;2024-01-09;PR;GUARATUBA;376;663;-25.85276631;-48.97556799;2
307;2024-01-09;MG;JUATUBA;262;377;-19.95769344;-44.35590072;8
308;2024-01-09;MS;PONTA PORA;463;108;-22.5856609;-55.68094093;2
309;2024-01-09;RJ;PETROPOLIS;40;53;-22.34399896;-43.13243691;11
310;2024-01-09;PR;FERNANDES PINHEIRO;277;233;-25.46474006;-50.57376981;2
311;2024-01-09;BA;TEIXEIRA DE FREITAS;101;857;-17.57759187;-39.73659523;5
312;2024-01-09;AL;SAO MIGUEL DOS CAMPOS;101;141;-9.833217;-36.130977;5
313;2024-01-09;MT;JACIARA;364;312;-15.81254719;-55.25660503;26
314;2024-01-10;PR;PONTA GROSSA;376;508,1;-25.204134;-50.06885737;5
315;2024-01-09;AL;OURO BRANCO;423;2,2;-9.13695648;-37.30600398;3
316;2024-01-09;SC;FAXINAL DOS GUEDES;282;483;-26.864898;-52.212811;5
317;2024-01-09;GO;PADRE BERNARDO;80;3;-15.50163599;-48.2160759;3
318;2024-01-09;PI;OEIRAS;230;195;-7.002869;-42.116242;2
319;2024-01-10;PB;MAMANGUAPE;101;42,2;-6.85879418;-35.13429236;2
320;2024-01-10;SC;CAPAO ALTO;116;308;-28.19824113;-50.75066799;2
321;2024-01-10;RS;BARRA DO RIBEIRO;116;332;-30.39620212;-51.44091884;2
322;2024-01-10;CE;CAUCAIA;20;389;-3.86034807;-38.79324995;4
323;2024-01-10;MG;CAETE;381;417,2;-19.75815121;-43.63601756;6
324;2024-01-10;MT;TERRA NOVA DO NORTE;163;997;-10.63575696;-55.13301514;4
325;2024-01-10;RJ;NOVA IGUACU;116;184;-22.74647215;-43.44594311;77
326;2024-01-10;MG;UBERABA;50;155;-19.60825703;-48.02198508;11
327;2024-01-10;SP;EMBU DAS ARTES;116;276;-23.62643913;-46.81720734;4
328;2024-01-10;PE;SAO CAITANO;423;18;-8.33033097;-36.14470299;5
329;2024-01-09;BA;SANTA BARBARA;116;382,4;-11.8732;-38.9788;3
330;2024-01-10;RS;RIO GRANDE;392;3,5;-32.06221202;-52.08949696;4
331;2024-01-10;SC;JOINVILLE;101;43;-26.30357106;-48.88225609;8
332;2024-01-10;RJ;JAPERI;493;81;-22.6619872;-43.62773895;1
333;2024-01-09;PR;TIBAGI;376;441;-24.86560694;-50.44632287;3
334;2024-01-10;SP;LAVRINHAS;116;22,2;-22.57958039;-44.87696171;2
335;2024-01-10;SP;MIRACATU;116;380;-24.21753686;-47.36651776;11
336;2024-01-10;MG;BELO HORIZONTE;381;454,3;-19.85593827;-43.89662047;10
337;2024-01-10;RJ;SEROPEDICA;493;92;-22.69892101;-43.69262695;2
338;2024-01-10;GO;ANAPOLIS;414;439,7;-16.27764467;-48.94156071;2
339;2024-01-10;RO;JARU;364;425;-10.43752488;-62.47169791;25
340;2024-01-10;RJ;NITEROI;101;323;-22.87684786;-43.11728689;26
341;2024-01-10;PR;MORRETES;277;38;-25.56584471;-48.81116269;16
342;2024-01-10;MA;ACAILANDIA;222;676;-4.95662219;-47.49447584;2
343;2024-01-10;ES;SERRA;101;258,8;-20.13059888;-40.2961019;18
344;2024-01-10;PI;CAMPO MAIOR;343;266,7;-4.840245;-42.174171;16
345;2024-01-10;MT;NOVA MUTUM;163;640;-13.557704;-56.02814897;5
346;2024-01-10;SP;CAJATI;116;519;-24.88932071;-48.23326417;4
347;2024-01-10;CE;FORTALEZA;116;9,3;-3.82779096;-38.50486117;33
348;2024-01-10;BA;CONCEICAO DO ALMEIDA;101;240;-12.88117996;-39.21999041;10
349;2024-01-10;ES;MIMOSO DO SUL;101;457,8;-21.19995092;-41.30085122;4
350;2024-01-10;RS;SOLEDADE;386;251;-28.830132;-52.460941;4
351;2024-01-10;SP;GUARULHOS;116;229;-23.51291902;-46.57604698;45
352;2024-01-10;RS;SANTA BARBARA DO SUL;285;395,2;-28.38822904;-53.27493668;5
353;2024-01-10;MG;PERDOES;381;674,5;-21.107021;-45.09114;7
354;2024-01-10;DF;BRASILIA;80;13;-15.728034;-48.193768;4
355;2024-01-03;MS;ITAQUIRAI;163;99;-23.28969397;-54.2245658;6
356;2024-01-10;RJ;TANGUA;101;271;-22.72443147;-42.69368143;20
357;2024-01-10;GO;SIMOLANDIA;20;185,3;-14.443042;-46.462242;3
358;2024-01-11;BA;PEDRO ALEXANDRE;235;33,3;-10.14946994;-37.96276994;2
359;2024-01-11;PB;PIANCO;361;75,5;-7.190908;-37.85121;4
360;2024-01-11;SP;ITAPECERICA DA SERRA;116;297;-23.78323219;-46.91437053;7
361;2024-01-11;PI;ALTOS;343;304,4;-5.03109693;-42.43846893;4
362;2024-01-11;BA;SALVADOR;324;622;-12.91888605;-38.46502095;54
363;2024-01-11;CE;ALTO SANTO;116;267;-5.62048178;-38.41070004;3
364;2024-01-11;BA;PLANALTO;116;785,5;-14.68683206;-40.55656087;5
365;2024-01-11;MG;SAO GONCALO DO PARA;262;430;-19.89011218;-44.80551997;9
366;2024-01-11;PE;JABOATAO DOS GUARARAPES;232;9,2;-8.07764447;-34.97863609;65
367;2024-01-11;MG;FRANCISCO SA;251;512,8;-16.6553239;-43.71906108;9
368;2024-01-11;MT;ITAUBA;163;930;-11.17218194;-55.31169576;5
369;2024-01-03;MG;BICAS;267;59,2;-21.7245573;-43.04402678;6
370;2024-01-06;SC;CHAPECO;480;123,9;-27.001992;-52.644768;6
371;2024-01-11;PR;MAUA DA SERRA;376;305,9;-23.93937915;-51.12126231;4
372;2024-01-11;GO;CRISTALINA;40;92;-16.730814;-47.626211;18
373;2024-01-11;RS;GUAIBA;116;296;-30.08861201;-51.34229993;10
374;2024-01-11;SC;BALNEARIO PICARRAS;101;97;-26.72823703;-48.70224928;9
375;2024-01-11;SC;ITAPEMA;101;151;-27.126536;-48.609642;36
376;2024-01-11;MG;BETIM;381;484;-19.95531717;-44.11722196;43
377;2024-01-11;RS;CARAZINHO;386;166;-28.205965;-52.827972;7
378;2024-01-11;BA;FEIRA DE SANTANA;324;517;-12.24953308;-38.93362525;37
379;2024-01-11;PI;GEMINIANO;316;333;-7.1066551;-41.27195001;16
380;2024-01-11;SP;ARUJA;116;198;-23.39721625;-46.29284287;15
381;2024-01-11;RJ;DUQUE DE CAXIAS;40;112;-22.7004454;-43.29014851;56
382;2024-01-11;SC;XANXERE;282;504,5;-26.884279;-52.408466;11
383;2024-01-11;MT;PRIMAVERA DO LESTE;70;281;-15.56702889;-54.30512706;13
384;2024-01-11;BA;JAGUAQUARA;116;637;-13.50672946;-40.05364095;3
385;2024-01-11;RN;SAO GONCALO DO AMARANTE;406;171;-5.76337202;-35.28717399;2
386;2024-01-11;RS;PASSO FUNDO;285;296,6;-28.2339272;-52.40753174;2
387;2024-01-11;BA;FEIRA DE SANTANA;324;515,5;-12.23547809;-38.94396807;10
388;2024-01-11;SP;LAVRINHAS;116;19,4;-22.56334703;-44.86497596;4
389;2024-01-11;AL;RIO LARGO;104;91,3;-9.50898856;-35.80777135;13
390;2024-01-11;SC;BALNEARIO PICARRAS;101;101,4;-26.77241069;-48.68604165;4
391;2024-01-11;MT;CONQUISTA DOESTE;174;344;-14.77008585;-59.34019777;1
392;2024-01-11;PR;SANTO ANTONIO DO SUDOESTE;163;26,5;-26.11976219;-53.67907047;14
393;2024-01-11;TO;COLINAS DO TOCANTINS;153;248;-8.06220097;-48.46672098;2
394;2024-01-11;MG;BURITIZEIRO;365;218;-17.59130864;-45.35991523;2
395;2024-01-11;ES;ARACRUZ;101;188;-19.67835348;-40.26799321;3
396;2024-01-11;SC;VARGEAO;282;476;-26.882666;-52.169231;2
397;2024-01-11;PB;CAMPINA GRANDE;230;159;-7.252;-35.9334;6
398;2024-01-11;PR;SANTA TEREZINHA DE ITAIPU;277;718;-25.48013487;-54.48530406;2
399;2024-01-11;CE;BARRO;116;466;-7.237718;-38.84282;9
400;2024-01-11;PB;MAMANGUAPE;101;45,2;-6.88322894;-35.1303459;7
401;2024-01-11;SC;CAMPOS NOVOS;470;341,7;-27.527861;-51.380497;4
402;2024-01-11;PR;GENERAL CARNEIRO;153;518,9;-26.59244151;-51.45618439;2
403;2024-01-11;PA;IPIXUNA DO PARA;10;191,4;-2.75791;-47.45823;2
404;2024-01-11;MA;BACABEIRA;402;2,9;-2.964762;-44.309975;2
405;2024-01-11;AL;RIO LARGO;101;92;-9.50397895;-35.91844603;2
406;2024-01-11;RS;ROSARIO DO SUL;290;496,6;-30.20376;-55.071381;4
407;2024-01-11;PI;BARRO DURO;316;101;-5.83803464;-42.47945107;2
408;2024-01-11;PB;QUEIMADAS;104;143;-7.40477903;-35.89667929;10
409;2024-01-11;PB;CRUZ DO ESPIRITO SANTO;230;57;-7.2028;-35.1125;7
410;2024-01-11;PR;MALLET;153;394;-25.91286173;-50.84605212;4
411;2024-01-11;MG;JOAO PINHEIRO;40;143,5;-17.747998;-46.173903;5
412;2024-01-11;PR;MORRETES;277;40;-25.58285944;-48.86836767;3
413;2024-01-12;ES;ANCHIETA;101;358;-20.691717;-40.704254;3
414;2024-01-12;MG;BOM DESPACHO;262;466,6;-19.80696129;-45.12497507;5
415;2024-01-12;RS;SAO LEOPOLDO;116;247,1;-29.76733091;-51.1535296;46
416;2024-01-12;PR;MARIALVA;376;196,7;-23.50107252;-51.77839279;2
417;2024-01-12;PR;CASCAVEL;277;588,5;-24.97639126;-53.44369406;6
418;2024-01-12;MG;CAXAMBU;354;705;-21.99205276;-44.9251702;5
419;2024-01-12;PE;SALGUEIRO;116;30;-8.103991;-39.12421;4
420;2024-01-12;PI;ALTOS;343;314,3;-5.047346;-42.518414;6
421;2024-01-04;MG;JOAO MONLEVADE;381;350;-19.84953832;-43.15779198;18
422;2024-01-12;PR;CASCAVEL;163;231;-24.897235;-53.533793;31
423;2024-01-12;SP;MIRACATU;116;360;-24.11321;-47.269527;2
424;2024-01-12;PA;SANTA IZABEL DO PARA;316;35;-1.28956444;-48.15451813;4
425;2024-01-12;MS;AGUA CLARA;262;118,9;-20.50995218;-52.65413403;5
426;2024-01-12;MA;ITAPECURU MIRIM;135;105;-3.39583238;-44.50239179;11
427;2024-01-12;MG;PATOS DE MINAS;365;388,2;-18.61055297;-46.28857506;8
428;2024-01-12;ES;SAO MATEUS;101;66;-18.7165195;-39.87436378;42
429;2024-01-12;SC;ARAQUARI;101;59;-26.44651734;-48.79426826;7
430;2024-01-12;MG;PERDOES;381;676,5;-21.12375684;-45.09790729;6
431;2024-01-12;RS;PELOTAS;293;2;-31.750426;-52.35999499;8
432;2024-01-12;PR;CASCAVEL;163;212,7;-24.92573701;-53.53696393;7
433;2024-01-12;MT;CACERES;70;721;-16.19990789;-57.57721185;2
434;2024-01-12;SP;ARUJA;116;199;-23.40185327;-46.31154312;10
435;2024-01-12;SP;LORENA;459;31;-22.73456055;-45.09753013;6
436;2024-01-12;PR;CAMPINA GRANDE DO SUL;116;38,4;-25.14802509;-48.85922071;26
437;2024-01-12;MG;CAETE;381;421,2;-19.76304;-43.64115;1
438;2024-01-12;PR;MORRETES;277;43;-25.57437908;-48.85418905;7
439;2024-01-12;RS;TRIUNFO;386;401,9;-29.758154;-51.594955;4
440;2024-01-12;BA;IBITIARA;242;472;-12.46284633;-42.24683193;3
441;2024-01-12;RS;PASSO FUNDO;285;285,8;-28.24577;-52.299809;6
442;2024-01-12;MG;UBERLANDIA;50;86;-19.02282907;-48.20486654;2
443;2024-01-12;PR;NOVA ESPERANCA;376;130,9;-23.17504848;-52.23423918;6
444;2024-01-12;SC;BALNEARIO CAMBORIU;101;132,9;-26.99654133;-48.65564711;50
445;2024-01-12;RJ;ANGRA DOS REIS;101;512;-22.96909;-44.44151;3
446;2024-01-12;SC;CURITIBANOS;470;245,1;-27.31507593;-50.53261757;3
447;2024-01-12;ES;SAO MATEUS;101;83;-18.84352214;-39.92324081;5
448;2024-01-12;GO;CEZARINA;60;218,4;-16.9695;-49.7325;4
449;2024-01-12;SP;JUQUIA;116;426;-24.38735659;-47.7169352;7
450;2024-01-12;MG;CONGONHAS;40;613;-20.52573324;-43.82738113;4
451;2024-01-12;PB;QUEIMADAS;104;151,3;-7.46590398;-35.92585804;2
452;2024-01-12;GO;ITABERAI;70;182;-15.98889949;-49.71787785;3
453;2024-01-12;BA;IRAJUBA;116;596;-13.18013991;-40.0048822;7
454;2024-01-13;SE;NOSSA SENHORA DO SOCORRO;235;13,7;-10.868567;-37.171078;2
455;2024-01-13;PR;GUARATUBA;376;671;-25.885323;-48.935154;17
456;2024-01-13;RS;ELDORADO DO SUL;290;113,7;-30.043636;-51.337456;6
457;2024-01-13;MT;TERRA NOVA DO NORTE;163;1013;-10.51022501;-55.07439093;7
458;2024-01-13;PE;JABOATAO DOS GUARARAPES;232;20;-8.095575;-35.078017;1
459;2024-01-13;BA;SAO SEBASTIAO DO PASSE;324;561;-12.49783433;-38.64646092;6
460;2024-01-13;PR;CANDOI;277;385;-25.42033161;-51.78427423;3
461;2024-01-13;RO;CACOAL;364;234;-11.45655595;-61.42349597;4
462;2024-01-13;MG;AIURUOCA;267;262,9;-21.935521;-44.574387;3
463;2024-01-13;PE;RECIFE;101;65,5;-8.02478597;-34.94276635;20
464;2024-01-13;PE;AGUA PRETA;101;163;-8.55039544;-35.44619699;5
465;2024-01-13;TO;MIRANORTE;153;402;-9.42769595;-48.5731633;2
466;2024-01-13;MG;TRES MARIAS;40;268;-18.1662113;-45.290626;3
467;2024-01-13;MG;NOVA SERRANA;262;444;-19.881131;-44.931502;14
468;2024-01-13;BA;SANTA TERESINHA;116;505,1;-12.6313742;-39.5974739;7
469;2024-01-13;RO;CHUPINGUAIA;364;108;-12.2236797;-60.68902732;2
470;2024-01-13;PR;JURANDA;369;424,2;-24.4104;-52.8178;2
471;2024-01-13;PR;SAO JOSE DOS PINHAIS;116;102;-25.56779;-49.17508;3
472;2024-01-13;MS;NOVA ALVORADA DO SUL;267;221,4;-21.557398;-54.137716;2
473;2024-01-13;TO;ALVORADA;153;774,3;-12.58485433;-49.07463716;5
474;2024-01-13;RO;VILHENA;364;79;-12.43655117;-60.5686841;6
475;2024-01-13;PA;DOM ELISEU;10;10,1;-4.357685;-47.536694;2
476;2024-01-13;PE;JUPI;423;72,5;-8.70118191;-36.4154612;7
477;2024-01-13;SP;GUARULHOS;381;88;-23.47469314;-46.56112919;45
478;2024-01-13;MT;VARZEA GRANDE;70;513;-15.70667126;-56.12434387;7
479;2024-01-13;BA;FEIRA DE SANTANA;324;530,9;-12.33362408;-38.85454306;11
480;2024-01-13;GO;PROFESSOR JAMIL;153;563;-17.2383;-49.239;3
481;2024-01-13;GO;MINEIROS;364;288,1;-17.594793;-52.449528;5
482;2024-01-13;BA;CONCEICAO DO JACUIPE;101;161,9;-12.35551436;-38.782478;14
483;2024-01-13;RS;SANTA MARIA;287;247;-29.69850705;-53.84423554;6
484;2024-01-13;MG;UBERLANDIA;365;626;-18.90659356;-48.33469405;6
485;2024-01-13;RJ;TRES RIOS;40;31;-22.19245612;-43.16023202;11
486;2024-01-13;TO;ARAGUAINA;153;135;-7.12896688;-48.19843215;10
487;2024-01-13;RS;BOA VISTA DAS MISSOES;386;71,9;-27.677305;-53.309586;4
488;2024-01-13;MA;SANTA RITA;135;69,3;-3.13287318;-44.32482824;2
489;2024-01-13;MS;MUNDO NOVO;163;1;-24.03924443;-54.27975143;1
490;2024-01-13;RS;SAO LUIZ GONZAGA;285;564,8;-28.416992;-54.936764;2
491;2024-01-13;MG;PADRE CARVALHO;251;350,3;-16.25707333;-42.52236843;3
492;2024-01-14;MG;BETIM;381;499;-20.01792651;-44.2261448;33
493;2024-01-13;MA;SANTA LUZIA;222;403,5;-3.93844311;-45.63290294;2
494;2024-01-13;PR;PRUDENTOPOLIS;277;302;-25.3023874;-51.11164331;3
495;2024-01-14;SC;PALHOCA;101;213,7;-27.63697369;-48.66514142;69
496;2024-01-14;PA;MARABA;230;121;-5.35297407;-49.12143673;30
497;2024-01-14;RS;GRAVATAI;290;62;-29.932089;-50.877304;7
498;2024-01-14;PB;RIO TINTO;101;31;-6.758091;-35.13408691;3
499;2024-01-14;MG;CAETANOPOLIS;40;453,5;-19.34189163;-44.35667832;3
500;2024-01-14;PR;LAPA;476;193,5;-25.731451;-49.709415;3
501;2024-01-14;PR;PRUDENTOPOLIS;277;282;-25.34688486;-50.9324159;7
502;2024-01-14;AL;SAO MIGUEL DOS CAMPOS;101;130;-9.75846103;-36.07001181;10
503;2024-01-14;SC;IRANI;153;58,7;-26.9697563;-51.85447097;3
504;2024-01-14;SP;LAVRINHAS;116;22;-22.58368521;-44.87772952;13
505;2024-01-14;MT;SANTO ANTONIO DO LEVERGER;364;383;-15.70214023;-55.82954341;4
506;2024-01-13;GO;CAIAPONIA;158;200;-17.313392;-51.877795;6
507;2024-01-14;BA;SAO SEBASTIAO DO PASSE;110;398,9;-12.543568;-38.511222;3
508;2024-01-14;RS;ARROIO DOS RATOS;290;152;-30.104769;-51.727539;8
509;2024-01-14;MS;NOVA ALVORADA DO SUL;163;366,1;-21.45560311;-54.3798887;7
510;2024-01-14;RJ;DUQUE DE CAXIAS;40;109;-22.6751513;-43.28648871;3
511;2024-01-14;SP;GUARATINGUETA;116;66;-22.82270215;-45.20193286;8
512;2024-01-14;BA;ILHEUS;415;26,4;-14.797374;-39.197339;2
513;2024-01-14;TO;PRESIDENTE KENNEDY;153;302;-8.551863;-48.483192;2
514;2024-01-14;BA;ITABUNA;101;511;-14.847359;-39.282377;2
515;2024-01-14;PR;TIBAGI;376;423,5;-24.70231;-50.572706;4
516;2024-01-14;BA;IBIRAPITANGA;101;400;-14.00027309;-39.44804192;4
517;2024-01-14;SC;MAFRA;280;206,4;-26.1612574;-50.13125904;25
518;2024-01-14;RJ;ANGRA DOS REIS;101;509;-22.944094;-44.428395;2
519;2024-01-14;SC;CORDILHEIRA ALTA;282;529;-26.982185;-52.59734;29
520;2024-01-14;MG;MATIPO;262;72,3;-20.31052475;-42.31517791;12
521;2024-01-14;PR;CURITIBA;376;594,1;-25.485998;-49.346755;2
522;2024-01-14;BA;LENCOIS;242;350;-12.49530755;-41.32112295;3
523;2024-01-14;RS;CRUZ ALTA;158;194,7;-28.64697462;-53.57707143;4
524;2024-01-14;SC;SAO JOSE DO CERRITO;282;253;-27.684978;-50.565498;5
525;2024-01-14;PR;PARANAGUA;277;5,2;-25.55856483;-48.57273996;8
526;2024-01-14;BA;BOA NOVA;116;725,8;-14.23744;-40.28195201;2
527;2024-01-14;MG;CACHOEIRA DE PAJEU;116;25;-15.87144601;-41.43021999;14
528;2024-01-14;GO;NOVA GLORIA;153;274;-15.099608;-49.47702;9
529;2024-01-14;PB;MASSARANDUBA;230;137;-7.27605;-35.782045;1
530;2024-01-14;SC;BOM RETIRO;282;132,9;-27.8075185;-49.5322749;3
531;2024-01-14;MG;UBERLANDIA;50;56;-18.781772;-48.234901;1
532;2024-01-14;RJ;RESENDE;116;304;-22.4550412;-44.38649998;9
533;2024-01-14;RS;ELDORADO DO SUL;290;141;-30.086048;-51.61882;11
534;2024-01-14;MA;GOVERNADOR EDISON LOBAO;10;218;-5.808956;-47.358917;2
535;2024-01-14;PE;FLORES;232;372;-8.02815279;-37.98335296;5
536;2024-01-15;MG;CURVELO;40;422,1;-19.15372286;-44.54767401;10
537;2024-01-15;PR;CAMPO LARGO;277;117;-25.43500737;-49.52777803;5
538;2024-01-14;RJ;RIO DE JANEIRO;465;22;-22.863579;-43.601479;11
539;2024-01-15;PR;MATELANDIA;277;659,5;-25.24664169;-53.98334832;13
540;2024-01-14;PR;GUARAPUAVA;277;371;-25.42656187;-51.66127889;6
541;2024-01-15;SP;LORENA;459;32;-22.74157511;-45.09206392;17
542;2024-01-15;MS;DOIS IRMAOS DO BURITI;262;438,3;-20.50961962;-55.34679213;3
543;2024-01-15;BA;TEIXEIRA DE FREITAS;101;858,7;-17.40273539;-39.67266083;5
544;2024-01-15;ES;VIANA;101;297;-20.34529844;-40.41026774;26
545;2024-01-15;SC;TROMBUDO CENTRAL;470;157;-27.285425;-49.76881;11
546;2024-01-15;SC;AGUAS MORNAS;282;45,8;-27.719851;-48.916126;8
547;2024-01-15;BA;RIBEIRA DO POMBAL;110;176,2;-10.89629907;-38.52352048;3
548;2024-01-15;PE;RECIFE;101;68;-8.051295;-34.945959;5
549;2024-01-03;MG;ITABIRITO;40;589,4;-20.36435247;-43.91016483;5
550;2024-01-15;RS;SAO LOURENCO DO SUL;116;474,5;-31.37297804;-52.09946498;5
551;2024-01-15;MG;CAREACU;381;815;-22.08771284;-45.70503017;4
552;2024-01-15;SC;BARRA VELHA;101;90,2;-26.66134309;-48.68870258;7
553;2024-01-14;BA;TEOLANDIA;101;344;-13.59043065;-39.48040009;2
554;2024-01-15;SC;BALNEARIO CAMBORIU;101;135;-27.0050108;-48.62677494;44
555;2024-01-15;RJ;TANGUA;101;274;-22.73506292;-42.71948103;22
556;2024-01-15;MG;ANTONIO DIAS;381;309;-19.656227;-42.958355;5
557;2024-01-15;RS;VACARIA;116;39;-28.5120121;-50.93237991;7
558;2024-01-15;BA;SALVADOR;324;612,5;-12.84664721;-38.41741648;27
559;2024-01-15;SC;PALHOCA;101;222;-27.70865409;-48.65586407;13
560;2024-01-15;PB;JOAO PESSOA;230;17,8;-7.1121;-34.8426;26
561;2024-01-15;RS;CANGUCU;392;121,7;-31.39134151;-52.69918993;4
562;2024-01-15;BA;AMELIA RODRIGUES;324;537;-12.37832791;-38.80197287;4
563;2024-01-15;ES;CARIACICA;101;286,7;-20.25902175;-40.37753412;4
564;2024-01-15;MG;BOM DESPACHO;262;476;-19.7879943;-45.21134295;3
565;2024-01-15;MT;SINOP;163;831;-12.022768;-55.51723;13
566;2024-01-15;PR;BOCAIUVA DO SUL;476;82;-25.13823342;-49.10689116;6
567;2024-01-15;RJ;CAMPOS DOS GOYTACAZES;101;46;-21.59839998;-41.3168335;8
568;2024-01-15;PR;APUCARANA;376;242,7;-23.580437;-51.436026;3
569;2024-01-15;GO;APARECIDA DE GOIANIA;153;506,8;-16.76068022;-49.24016476;2
570;2024-01-15;TO;PALMAS;10;456;-10.295737;-48.297578;2
571;2024-01-15;MS;SELVIRIA;158;221;-20.51786834;-51.5795013;3
572;2024-01-15;MG;RIBEIRAO DAS NEVES;40;507;-19.75431705;-44.14152606;11
573;2024-01-15;MG;SANTO ANTONIO DO AMPARO;381;646;-20.94471289;-44.88107085;5
574;2024-01-15;PE;GOIANA;101;10;-7.58679204;-34.98736241;8
575;2024-01-15;PI;BURITI DOS LOPES;343;86;-3.459998;-41.745869;3
576;2024-01-15;ES;MARECHAL FLORIANO;262;63;-20.418443;-40.816225;4
577;2024-01-15;RS;ALEGRETE;290;549;-29.94013;-55.500866;2
578;2024-01-15;SP;SAO PAULO;116;229,1;-23.512397;-46.575819;12
579;2024-01-15;MA;JATOBA;135;415;-5.90437707;-44.29721116;7
580;2024-01-15;RJ;MACAE;101;177;-22.38696304;-41.98541396;8
581;2024-01-15;PR;LAPA;476;224,4;-25.848568;-49.941429;2
582;2024-01-15;MT;NOVA MUTUM;163;602;-13.89007603;-56.08964479;7
583;2024-01-15;PR;JURANDA;369;416,2;-24.47431825;-52.87474036;3
584;2024-01-15;PR;GUARANIACU;277;502,9;-25.15665106;-52.69694215;7
585;2024-01-16;RN;SAO JOSE DE MIPIBU;101;129,8;-6.112119;-35.233627;7
586;2024-01-16;MT;CUIABA;364;392,2;-15.68824488;-55.91002464;1
587;2024-01-16;ES;VILA VELHA;101;317,5;-20.48575596;-40.47626411;6
588;2024-01-08;PB;BAYEUX;101;83;-7.1337703;-34.92963914;34
589;2024-01-16;SC;POUSO REDONDO;470;169;-27.26552112;-49.88151312;4
590;2024-01-16;RS;ELDORADO DO SUL;290;123;-30.05328;-51.438354;11
591;2024-01-16;RJ;CAMPOS DOS GOYTACAZES;101;78;-21.83525792;-41.41878002;4
592;2024-01-16;PR;GUARATUBA;376;673;-25.90092097;-48.92572096;7
593;2024-01-16;AL;ATALAIA;316;214,9;-9.51559115;-36.22746693;3
594;2024-01-16;RN;ACU;304;115;-5.61387215;-36.89679107;4
595;2024-01-16;RJ;TERESOPOLIS;116;74;-22.35343905;-42.94244164;4
596;2024-01-16;PR;APUCARANA;376;1;-23.5513;-51.461266;45
597;2024-01-16;PR;APUCARANA;376;244,9;-23.596168;-51.4113587;4
598;2024-01-16;PR;NOVA LONDRINA;376;45,6;-22.86041762;-52.96613932;5
599;2024-01-16;PR;MAUA DA SERRA;376;307;-23.9743171;-51.1035821;9
600;2024-01-16;GO;INDIARA;60;264;-17.17369127;-50.05759846;2
601;2024-01-16;RS;ESTRELA;386;354,6;-29.50594252;-51.94369197;7
602;2024-01-16;MG;MOEMA;262;494,4;-19.78590815;-45.37959199;2
603;2024-01-16;CE;PARAMBU;20;28,3;-6.33755995;-40.63091732;5
604;2024-01-16;BA;CANDIDO SALES;116;890,2;-15.28578591;-41.13352714;3
605;2024-01-16;RS;PORTO ALEGRE;290;102;-29.987228;-51.25613;9
606;2024-01-16;MG;PERIQUITO;381;199;-19.16696108;-42.24582388;4
607;2024-01-16;RJ;CAMPOS DOS GOYTACAZES;101;99;-21.8758198;-41.5832851;7
608;2024-01-16;RS;GUAIBA;116;308;-30.18291689;-51.39555744;6
609;2024-01-16;GO;FORMOSA;20;19,7;-15.553887;-47.18708;5
610;2024-01-16;PR;LINDOESTE;163;162,8;-25.31897491;-53.59171426;2
611;2024-01-16;RO;ARIQUEMES;364;487;-10.1121516;-62.92105484;16
612;2024-01-06;RS;GLORINHA;290;56,7;-29.915447;-50.818508;7
613;2024-01-16;GO;GOIATUBA;153;664;-18.0901;-49.271;3
614;2024-01-16;RS;RIO PARDO;471;175,5;-29.99307662;-52.36828566;5
615;2024-01-16;PR;GUARAPUAVA;277;312,6;-25.32395317;-51.19272709;9
616;2024-01-16;PB;JOAO PESSOA;230;26;-7.1693;-34.8782;28
617;2024-01-16;TO;WANDERLANDIA;153;129;-7.09135326;-48.16831112;6
618;2024-01-16;SC;BARRA VELHA;101;89;-26.65175997;-48.68721921;14
619;2024-01-16;ES;SERRA;101;241;-20.02389596;-40.39998096;6
620;2024-01-16;PA;BRAGANCA;308;193;-1.07541058;-46.85633484;3
621;2024-01-16;PR;SARANDI;376;185;-23.45147413;-51.85361808;15
622;2024-01-16;BA;SALVADOR;324;614;-12.87305463;-38.42778509;2
623;2024-01-16;RS;JAGUARI;287;350;-29.51133302;-54.67711984;1
624;2024-01-16;PB;MALTA;230;360;-6.9172;-37.4635;9
625;2024-01-16;RJ;CASIMIRO DE ABREU;101;205;-22.475714;-42.19184;20
626;2024-01-16;SP;MIRACATU;116;396;-24.29194738;-47.46959192;2
627;2024-01-16;PR;IMBITUVA;373;217;-25.15942947;-50.55152074;6
628;2024-01-16;CE;CAUCAIA;20;400;-3.79855422;-38.71579485;2
629;2024-01-16;SP;SAO PAULO;116;228;-23.50343484;-46.56638712;69
630;2024-01-16;PI;LAGOA DO PIAUI;316;42;-5.41952403;-42.64045707;3
631;2024-01-16;MG;BOM DESPACHO;262;479,8;-19.78628062;-45.23887303;8
632;2024-01-16;BA;OLIVEIRA DOS BREJINHOS;242;491;-12.40158974;-42.37914499;1
633;2024-01-16;PR;GUARANIACU;277;513,5;-25.12147286;-52.785734;3
634;2024-01-16;SC;NAVEGANTES;470;7;-26.84499;-48.71505;14
635;2024-01-16;PR;CAMPO LARGO;277;128;-25.44518045;-49.4985659;8
636;2024-01-17;SC;BOM RETIRO;282;134;-27.813074;-49.540077;6
637;2024-01-12;TO;WANDERLANDIA;153;128;-7.08522898;-48.15467901;2
638;2024-01-17;SC;SAO JOSE;101;207,8;-27.60001226;-48.6226467;106
639;2024-01-16;MA;ACAILANDIA;222;670;-4.936465;-47.457562;2
640;2024-01-17;PB;JOAO PESSOA;101;86,2;-7.15118983;-34.91012184;37
641;2024-01-17;AL;NOVO LINO;101;14,6;-8.98160808;-35.67369277;5
642;2024-01-16;RJ;PIRAI;116;220;-22.69305776;-43.77362606;2
643;2024-01-17;SC;PALHOCA;101;212;-27.62996929;-48.65903871;80
644;2024-01-14;SC;BALNEARIO PICARRAS;101;93;-26.6899011;-48.69663873;3
645;2024-01-17;PR;BALSA NOVA;277;124,5;-25.467404;-49.594445;4
646;2024-01-17;PR;MANDAGUARI;376;202,7;-23.5088647;-51.72232389;4
647;2024-01-17;PR;NOVA ESPERANCA;376;131;-23.17841393;-52.22515697;3
648;2024-01-17;BA;ITABELA;101;737;-16.51482857;-39.57733155;3
649;2024-01-17;GO;CRISTALINA;50;99;-16.77530238;-47.62354743;2
650;2024-01-17;PR;PORTO VITORIA;153;481,5;-26.36639;-51.25867;7
651;2024-01-06;CE;JAGUARIBE;116;329;-6.06670189;-38.65279927;3
652;2024-01-17;MG;CONGONHAS;40;618,5;-20.5615888;-43.81227278;4
653;2024-01-17;PR;APUCARANA;376;236,9;-23.587315;-51.479771;3
654;2024-01-17;RO;CACOAL;364;256,6;-11.43557706;-61.615763;6
655;2024-01-17;SC;CONCORDIA;153;112;-27.327526;-51.979298;2
656;2024-01-17;BA;ALAGOINHAS;101;109;-12.16492;-38.477026;8
657;2024-01-17;GO;ITUMBIARA;452;134;-18.24113336;-49.70845327;14
658;2024-01-17;PR;CAPITAO LEONIDAS MARQUES;163;134;-25.546616;-53.59186798;3
659;2024-01-17;RN;NATAL;101;83,7;-5.77313486;-35.2605021;2
660;2024-01-17;BA;SALVADOR;324;616,8;-12.87957905;-38.43213893;41
661;2024-01-17;PE;AGUAS BELAS;423;170;-9.12796232;-37.05114797;4
662;2024-01-17;PR;MEDIANEIRA;277;670,5;-25.28037085;-54.07911108;6
663;2024-01-17;MG;IGARAPE;381;514;-20.1065028;-44.32327616;12
664;2024-01-17;SP;SAO LOURENCO DA SERRA;116;311;-23.87725502;-46.96775798;16
665;2024-01-17;MG;GOVERNADOR VALADARES;116;410;-18.855625;-41.975623;15
666;2024-01-17;MS;CAMPO GRANDE;163;451,5;-20.71284752;-54.54527378;4
667;2024-01-17;RJ;PETROPOLIS;40;67,9;-22.43674775;-43.1756712;7
668;2024-01-17;PR;NOVA LARANJEIRAS;277;484,2;-25.27011524;-52.61299706;5
669;2024-01-17;SC;IBIRAMA;470;114,4;-27.086386;-49.478001;8
670;2024-01-17;MG;SAO FRANCISCO DO GLORIA;116;665,4;-20.82713698;-42.32223579;7
671;2024-01-17;MT;RONDONOPOLIS;163;118;-16.51361392;-54.65519619;7
672;2024-01-17;BA;AMELIA RODRIGUES;324;550,5;-12.43832718;-38.72506515;8
673;2024-01-17;MT;VALE DE SAO DOMINGOS;174;265;-15.387301;-59.1641;6
674;2024-01-17;PR;CONSELHEIRO MAIRINCK;153;82,4;-23.62499418;-50.147717;5
675;2024-01-17;SP;ARUJA;116;205;-23.41475243;-46.36600788;26
676;2024-01-17;BA;MILAGRES;116;554;-12.90392626;-39.86139056;11
677;2024-01-17;RS;SAO VICENTE DO SUL;287;343;-29.56983095;-54.68060641;8
678;2024-01-17;MG;TRES CORACOES;381;757,1;-21.67816733;-45.34083366;3
679;2024-01-17;RO;PORTO VELHO;364;724;-8.84981407;-63.93819809;3
680;2024-01-18;PI;VALENCA DO PIAUI;316;185,8;-6.27986853;-41.9457755;1
681;2024-01-18;SP;GUARULHOS;116;216;-23.45056589;-46.46258105;62
682;2024-01-18;GO;ARAGARCAS;70;449;-15.90874974;-52.03344237;2
683;2024-01-18;RJ;SEROPEDICA;116;202;-22.72996588;-43.61317403;15
684;2024-01-18;MG;CARANDAI;40;669,2;-20.966099;-43.786759;3
685;2024-01-17;MT;BARRA DO GARCAS;70;28;-15.81393036;-52.47756134;3
686;2024-01-17;SC;BALNEARIO CAMBORIU;101;138;-27.02397426;-48.60761649;59
687;2024-01-17;BA;RIBEIRA DO POMBAL;110;147;-10.67413598;-38.42456502;2
688;2024-01-18;RJ;SAO GONCALO;101;308;-22.79309326;-43.02479595;29
689;2024-01-18;PR;CURITIBA;116;116;-25.55468195;-49.27402397;34
690;2024-01-18;PI;BOM JESUS;135;348;-9.06601088;-44.32334311;4
691;2024-01-18;AL;JOAQUIM GOMES;101;29;-9.07654203;-35.74434506;6
692;2024-01-15;BA;BOA NOVA;116;736;-14.32130297;-40.32617043;1
693;2024-01-18;PR;MARINGA;376;10,5;-23.38215111;-51.91037698;5
694;2024-01-18;PE;IGARASSU;101;44;-7.85637001;-34.90842109;25
695;2024-01-18;SC;BLUMENAU;470;56,2;-26.87674;-49.127743;14
696;2024-01-18;MS;ITAQUIRAI;163;88;-23.38801296;-54.2114515;14
697;2024-01-18;BA;JEQUIE;116;700;-14.02757181;-40.19610925;2
698;2024-01-17;RJ;RIO DE JANEIRO;116;171;-22.8060415;-43.34289573;43
699;2024-01-18;PR;GUARAPUAVA;277;321,1;-25.35344678;-51.22861718;8
700;2024-01-18;PE;JABOATAO DOS GUARARAPES;232;17,9;-8.096947;-35.05353;4
701;2024-01-18;SC;PALHOCA;101;233;-27.80376397;-48.63826211;20
702;2024-01-18;PA;BENEVIDES;316;20;-1.3642339;-48.266582;11
703;2024-01-18;MG;CARMOPOLIS DE MINAS;381;592;-20.57880683;-44.6872411;5
704;2024-01-18;RS;PASSO FUNDO;285;293,1;-28.236645;-52.375156;19
705;2024-01-18;MG;CARMOPOLIS DE MINAS;381;592,3;-20.560258;-44.663513;4
706;2024-01-14;PR;PONTA GROSSA;376;488;-25.13510082;-50.16497282;15
707;2024-01-18;SC;POUSO REDONDO;470;178,7;-27.248392;-49.967083;6
708;2024-01-18;SC;PALHOCA;101;228;-27.7597249;-48.63078869;9
709;2024-01-18;MG;EXTREMA;381;937,4;-22.83554657;-46.32086698;13
710;2024-01-18;RS;SANTANA DO LIVRAMENTO;293;305,3;-30.78765247;-55.18643031;10
711;2024-01-18;MS;PARANAIBA;158;108;-19.77017499;-51.12058898;9
712;2024-01-18;SP;GUARULHOS;116;210;-23.42870023;-46.41085991;52
713;2024-01-18;RN;ANGICOS;304;161;-5.68198485;-36.50597621;8
714;2024-01-18;RJ;RIO BONITO;101;259;-22.70382012;-42.59637797;6
715;2024-01-18;RJ;SEROPEDICA;116;207;-22.72454443;-43.66145706;17
716;2024-01-18;BA;FEIRA DE SANTANA;116;429,6;-12.28847607;-39.01053786;1
717;2024-01-18;PR;GENERAL CARNEIRO;153;507,1;-26.50990453;-51.35421753;5
718;2024-01-18;TO;PARAISO DO TOCANTINS;153;520;-10.38023302;-48.89309787;3
719;2024-01-18;ES;CARIACICA;101;295;-20.33223667;-40.40004683;17
720;2024-01-18;SP;EMBU DAS ARTES;116;282;-23.68570216;-46.85970975;46
721;2024-01-18;MG;FRUTAL;364;34,5;-19.98406949;-48.95777009;4
722;2024-01-18;PR;GUARAPUAVA;277;332,8;-25.346834;-51.382651;19
723;2024-01-19;MS;BATAGUASSU;267;21,1;-21.72693625;-52.34505699;4
724;2024-01-19;ES;ANCHIETA;101;356;-20.69339794;-40.68748402;8
725;2024-01-19;MT;CACERES;70;741;-16.022312;-57.732925;2
726;2024-01-18;MG;FRUTAL;153;218,3;-20.092342;-49.084881;4
727;2024-01-19;RO;ITAPUA DO OESTE;364;590;-9.30997104;-63.14881615;4
728;2024-01-19;MG;OLIVEIRA;381;607;-20.66757503;-44.7378369;2
729;2024-01-19;ES;SERRA;101;276;-20.20788726;-40.3133509;13
730;2024-01-18;MG;JOAO PINHEIRO;365;333;-18.3152;-45.9729;5
731;2024-01-19;RO;PORTO VELHO;319;62;-8.766685;-63.884052;123
732;2024-01-19;MG;MONTES CLAROS;365;5;-16.74574399;-43.88392402;8
733;2024-01-19;MG;TEOFILO OTONI;116;275;-17.84235093;-41.51410418;26
734;2024-01-19;GO;PORANGATU;153;56;-13.301681;-49.120899;3
735;2024-01-19;RJ;TRES RIOS;393;175;-22.12722826;-43.22756487;3
736;2024-01-19;SP;BRAGANCA PAULISTA;381;16;-22.95797408;-46.48078972;1
737;2024-01-19;MG;CONSELHEIRO LAFAIETE;40;628,6;-20.65317901;-43.8088319;3
738;2024-01-19;MS;NOVA ALVORADA DO SUL;163;399,3;-21.17689;-54.47335;7
739;2024-01-19;MG;LEOPOLDINA;116;776,9;-21.59023796;-42.68715187;5
740;2024-01-19;PR;IBEMA;277;535,7;-25.11600884;-53.00690889;2
741;2024-01-19;BA;MANOEL VITORINO;116;719,3;-14.1888825;-40.26532343;4
742;2024-01-19;RS;FAZENDA VILANOVA;386;366,8;-29.572111;-51.855782;6
743;2024-01-19;RS;VACARIA;116;37,7;-28.49871957;-50.9176864;2
744;2024-01-19;PR;REBOUCAS;153;348;-25.59543291;-50.68809516;2
745;2024-01-19;PR;QUITANDINHA;116;162,2;-25.86425407;-49.40958595;2
746;2024-01-11;MT;SANTO ANTONIO DO LEVERGER;364;349;-15.792835;-55.579763;12
747;2024-01-19;RJ;SAPUCAIA;393;138;-22.00266194;-42.93093204;2
748;2024-01-19;SP;PINDAMONHANGABA;116;92,3;-22.95222732;-45.40443885;4
749;2024-01-19;ES;MARECHAL FLORIANO;262;73;-20.410523;-40.885538;6
750;2024-01-19;SC;CAPAO ALTO;116;305,4;-28.19840483;-50.72325701;2
751;2024-01-19;SC;ARAQUARI;101;71;-26.51864822;-48.71874636;2
752;2024-01-19;SC;SAO FRANCISCO DO SUL;280;6,8;-26.27041417;-48.64088416;4
753;2024-01-19;PR;CURITIBA;476;123;-25.392904;-49.209557;3
754;2024-01-19;ES;PEDRO CANARIO;101;18;-18.31320539;-39.95347307;3
755;2024-01-19;RO;PORTO VELHO;364;768;-9.13716737;-64.15431379;5
756;2024-01-19;SC;SAO JOSE;101;200;-27.54018513;-48.62287714;53
757;2024-01-15;MG;SABARA;381;450;-19.84130639;-43.87176902;7
758;2024-01-19;SP;PINDAMONHANGABA;116;99;-22.98236971;-45.46436617;29
759;2024-01-11;MT;SANTO ANTONIO DO LEVERGER;364;348;-15.80416834;-55.55429598;13
760;2024-01-19;MG;MANHUACU;262;30,3;-20.25053259;-41.98730227;8
761;2024-01-19;TO;WANDERLANDIA;153;123;-7.06272688;-48.11708226;3
762;2024-01-19;SP;VARGEM;381;2;-22.88187369;-46.39059388;13
763;2024-01-19;MG;ARAGUARI;50;7;-18.47978714;-48.04875045;2
764;2024-01-19;MG;UBERABA;50;137;-19.449708;-48.061767;2
765;2024-01-19;BA;JEREMOABO;110;73,7;-10.05964393;-38.34385813;6
766;2024-01-19;SP;SAO JOSE DOS CAMPOS;116;152,8;-23.23903999;-45.92061901;23
767;2024-01-19;SC;TIJUCAS;101;164;-27.243868;-48.6309;12
768;2024-01-19;MG;SANTOS DUMONT;40;750;-21.45724301;-43.55822199;4
769;2024-01-19;GO;GOIANAPOLIS;60;109;-16.4478;-49.0224;7
770;2024-01-19;BA;MARAU;101;431;-14.192983;-39.315217;1
771;2024-01-20;PE;LAJEDO;423;61,1;-8.658296;-36.329822;3
772;2024-01-20;PE;PETROLINA;407;121,5;-9.34588493;-40.55509788;7
773;2024-01-20;RS;MONTENEGRO;386;412;-29.807285;-51.499722;7
774;2024-01-20;MG;MARTINS SOARES;262;14,5;-20.26417;-41.868195;4
775;2024-01-20;SP;ROSEIRA;116;82,5;-22.90918532;-45.31883185;5
776;2024-01-20;SC;GOVERNADOR CELSO RAMOS;101;181,9;-27.39778;-48.63011;5
777;2024-01-20;PR;TIBAGI;376;435,8;-24.78145511;-50.51340938;4
778;2024-01-20;GO;COCALZINHO DE GOIAS;414;364,6;-15.75353119;-48.72925796;3
779;2024-01-20;SP;SAO JOSE DOS CAMPOS;116;141;-23.17004717;-45.82091491;25
780;2024-01-20;BA;IBIRAPUA;101;907,1;-17.7911892;-39.77977753;5
781;2024-01-20;MG;RIBEIRAO DAS NEVES;40;504,9;-19.72987888;-44.15253368;19
782;2024-01-20;GO;PADRE BERNARDO;80;5;-15.487851;-48.231476;3
783;2024-01-20;RJ;CARDOSO MOREIRA;356;110;-21.55895006;-41.45319306;8
784;2024-01-20;MG;MONTES CLAROS;251;519;-16.66359617;-43.77730598;4
785;2024-01-20;ES;ITAPEMIRIM;101;414,1;-20.92345849;-41.07835562;8
786;2024-01-20;PR;VENTANIA;153;146,2;-24.12788674;-50.23634791;2
787;2024-01-20;BA;POCOES;116;761;-14.50481991;-40.35798409;6
788;2024-01-20;SC;CAIBI;158;133,8;-27.06086945;-53.22378159;2
789;2024-01-20;PE;SAO JOSE DO BELMONTE;232;447,6;-7.99961227;-38.61712517;7
790;2024-01-20;PR;NOVA LARANJEIRAS;277;476,6;-25.30570383;-52.55588296;18
791;2024-01-20;PR;TOLEDO;163;272;-24.61078951;-53.9556706;5
792;2024-01-20;MT;POXOREO;70;230;-15.63920983;-53.94100182;8
793;2024-01-20;RS;BAGE;153;628;-31.37356233;-54.08027796;4
794;2024-01-20;MA;ACAILANDIA;222;663;-4.88471004;-47.36887698;7
795;2024-01-20;PI;PICOS;316;312;-7.08092534;-41.4582602;14
796;2024-01-20;SP;GUARULHOS;116;225;-23.48586772;-46.54075317;79
797;2024-01-20;RN;GOIANINHA;101;147;-6.27024233;-35.20920753;3
798;2024-01-20;PR;MAMBORE;369;375,2;-24.28203933;-52.54571915;4
799;2024-01-20;MG;SANTO ANTONIO DO AMPARO;381;654;-20.99437964;-44.96041633;13
800;2024-01-20;MS;PARANAIBA;158;86;-19.61221998;-51.21593191;2
801;2024-01-20;RJ;DUQUE DE CAXIAS;40;114;-22.71853604;-43.28993324;50
802;2024-01-20;AL;SATUBA;316;265,8;-9.5871392;-35.86110997;2
803;2024-01-20;PE;PETROLINA;407;117;-9.314647;-40.57336;6
804;2024-01-20;GO;GOIANIA;153;493;-16.6537;-49.2172;16
805;2024-01-20;GO;URUACU;153;203;-14.537633;-49.161839;4
806;2024-01-20;GO;COCALZINHO DE GOIAS;70;20;-15.74242903;-48.37509426;4
807;2024-01-20;MG;CALDAS;459;17,4;-21.84671;-46.438238;2
808;2024-01-20;MG;LEOPOLDINA;116;785,7;-21.63945948;-42.71309186;5
809;2024-01-20;SC;SAO JOSE;101;202,4;-27.55711595;-48.61897889;96
810;2024-01-21;AL;TEOTONIO VILELA;101;175,9;-9.89834517;-36.3666691;3
811;2024-01-20;RS;TORRES;101;3,3;-29.32474865;-49.77922041;6
812;2024-01-20;PA;SAO JOAO DO ARAGUAIA;230;83,5;-5.47532475;-48.82253688;3
813;2024-01-21;MG;PARACATU;40;69,9;-17.39371065;-46.73333352;3
814;2024-01-21;BA;CANDIDO SALES;116;910,3;-15.43802789;-41.22283929;3
815;2024-01-21;CE;SOBRAL;222;182,1;-3.760037;-40.067568;2
816;2024-01-21;PA;SAO DOMINGOS DO ARAGUAIA;230;70;-5.5079345;-48.71546613;2
817;2024-01-21;BA;SEABRA;242;429;-12.39566602;-41.88133602;4
818;2024-01-21;SP;CAJATI;116;511;-24.83558399;-48.2223738;25
819;2024-01-21;RO;CACOAL;364;226,5;-11.50326836;-61.36777537;5
820;2024-01-21;PR;CASCAVEL;163;216;-24.9955871;-53.55699127;6
821;2024-01-21;AL;DELMIRO GOUVEIA;423;95,9;-9.37554737;-38.11448387;4
822;2024-01-21;MG;SAO GONCALO DO ABAETE;40;247,5;-18.10887028;-45.4657742;3
823;2024-01-21;RO;CACOAL;364;239,9;-11.43425083;-61.46267289;10
824;2024-01-21;MG;ARAPORA;153;5,8;-18.46041004;-49.1880633;8
825;2024-01-21;PR;MARINGA;376;12,6;-23.39146095;-51.8928051;6
826;2024-01-21;PB;JOAO PESSOA;230;27,9;-7.165318;-34.898401;3
827;2024-01-21;MG;UBERLANDIA;50;55;-18.77290538;-48.24124319;14
828;2024-01-21;MS;TRES LAGOAS;158;9;-20.80376326;-51.68631186;5
829;2024-01-21;PI;CAMPO MAIOR;343;255;-4.77181119;-42.11400001;4
830;2024-01-21;SP;BADY BASSITT;153;76,6;-20.89941041;-49.4431879;6
831;2024-01-21;GO;APARECIDA DE GOIANIA;153;505;-16.7537;-49.2411;10
832;2024-01-21;PI;MONSENHOR GIL;316;72;-5.67458801;-42.59603009;2
833;2024-01-21;PR;PAULO FRONTIN;476;319,7;-26.061335;-50.72171;6
834;2024-01-21;MG;CAMANDUCAIA;381;919,8;-22.7716591;-46.19193618;7
835;2024-01-21;RJ;NITEROI;101;326;-22.87206203;-43.146105;22
836;2024-01-21;RO;ARIQUEMES;364;515;-9.92497302;-63.05491046;23
837;2024-01-21;RS;SAO JOSE DAS MISSOES;386;100,4;-27.75826924;-53.12028453;4
838;2024-01-21;CE;PENAFORTE;116;542,9;-7.81344;-39.083396;3
839;2024-01-21;BA;TUCANO;116;302;-11.19154404;-38.86778691;3
840;2024-01-21;MS;DOIS IRMAOS DO BURITI;262;435;-20.50079591;-55.31960003;3
841;2024-01-21;MG;SALINAS;251;268;-15.99368303;-42.01807201;7
842;2024-01-21;RJ;PIRAI;116;248;-22.59976123;-43.94042912;21
843;2024-01-21;MT;CACERES;70;693;-16.20283274;-57.38693613;4
844;2024-01-22;GO;ACREUNA;60;328;-17.54347;-50.509539;4
845;2024-01-22;SC;GASPAR;470;46,3;-26.8612324;-49.04087663;5
846;2024-01-21;RS;DILERMANDO DE AGUIAR;158;361;-29.78336289;-54.10892665;3
847;2024-01-22;MA;ESTREITO;10;130;-6.553709;-47.440681;2
848;2024-01-22;CE;FORTALEZA;116;16;-3.88732794;-38.50185439;20
849;2024-01-22;PR;SAO JOSE DOS PINHAIS;376;2;-25.5307;-49.1958;18
850;2024-01-22;RS;PANTANO GRANDE;290;236,2;-30.217392;-52.581612;4
851;2024-01-22;MG;GRAO MOGOL;251;377,2;-16.29829114;-42.74703201;3
852;2024-01-22;MS;CAMPO GRANDE;163;496;-20.35985581;-54.52552831;4
853;2024-01-22;GO;SANTO ANTONIO DO DESCOBERTO;60;6,7;-16.102975;-48.310772;1
854;2024-01-21;PA;TRAIRAO;163;500;-5.50289987;-55.83120751;11
855;2024-01-22;MT;JACIARA;364;279;-15.94251105;-55.01446001;5
856;2024-01-22;PR;QUITANDINHA;116;166;-25.86521941;-49.44583693;5
857;2024-01-22;SC;ARAQUARI;280;20;-26.36990477;-48.68224301;9
858;2024-01-22;MG;SAO JOAQUIM DE BICAS;381;507;-20.05643192;-44.28663308;6
859;2024-01-22;BA;PORTO SEGURO;367;50,6;-16.37330881;-39.29852716;7
860;2024-01-22;SP;CAJATI;116;513,3;-24.84870719;-48.21109772;3
861;2024-01-02;AL;MESSIAS;101;62,8;-9.30924999;-35.82452501;3
862;2024-01-22;PR;MORRETES;277;32;-25.547373;-48.790559;22
863;2024-01-22;BA;ALAGOINHAS;101;79;-12.01196305;-38.26882996;10
864;2024-01-22;AL;ATALAIA;316;242,9;-9.50727405;-36.02113501;9
865;2024-01-22;PA;SANTA IZABEL DO PARA;316;35;-1.29146197;-48.164561;9
866;2024-01-22;MA;TIMON;226;3,2;-5.13817871;-42.84456968;3
867;2024-01-02;PR;SANTA LUCIA;163;147,6;-25.44415695;-53.57850109;5
868;2024-01-22;MT;MATUPA;163;1047;-10.04840183;-54.90943457;6
869;2024-01-22;MG;MANHUACU;262;36,3;-20.25932046;-42.02298331;22
870;2024-01-22;PE;CARUARU;232;136,5;-8.31339932;-36.04175591;15
871;2024-01-22;RS;CAXIAS DO SUL;116;131,9;-29.04243793;-51.09118821;3
872;2024-01-22;RJ;GUAPIMIRIM;116;98,9;-22.48285706;-42.99723936;19
873;2024-01-22;PR;CANDOI;277;405;-25.42476038;-52.01405811;5
874;2024-01-22;RS;PORTO ALEGRE;290;102;-29.99054914;-51.2685585;7
875;2024-01-22;MS;ITAQUIRAI;163;103;-23.2534093;-54.22740398;6
876;2024-01-22;RS;PELOTAS;116;516,7;-31.67522177;-52.34182298;2
877;2024-01-22;BA;BOA VISTA DO TUPIM;242;258;-12.47654323;-40.53365808;4
878;2024-01-22;PR;PONTA GROSSA;376;497;-25.18271102;-50.09257101;4
879;2024-01-22;RJ;SEROPEDICA;493;97;-22.72116212;-43.70957851;4
880;2024-01-20;MG;JOAO PINHEIRO;365;245;-17.79493894;-45.42800103;4
881;2024-01-22;SP;MIRACATU;116;399;-24.30685192;-47.49673259;2
882;2024-01-22;PE;JABOATAO DOS GUARARAPES;101;79,9;-8.14366112;-34.94723453;29
883;2024-01-22;PR;LAPA;476;198,3;-25.765606;-49.73917;9
884;2024-01-22;SC;CORUPA;280;83,3;-26.4152291;-49.2571923;1
885;2024-01-22;RJ;SAO GONCALO;101;309;-22.79498873;-43.03446105;49
886;2024-01-22;BA;SALVADOR;324;614;-12.8639793;-38.42370126;31
887;2024-01-23;MG;BELO HORIZONTE;381;454;-19.84129444;-43.87213111;3
888;2024-01-23;MT;SANTO ANTONIO DO LEVERGER;364;354;-15.79674629;-55.59138;10
889;2024-01-23;MG;RIBEIRAO DAS NEVES;40;517;-19.82351202;-44.08438913;49
890;2024-01-22;MG;BURITIZEIRO;365;212;-17.56244988;-45.31488708;2
891;2024-01-23;GO;RIALMA;153;304,4;-15.311009;-49.572147;1
892;2024-01-23;MT;NOBRES;163;570,5;-14.654;-56.294;2
893;2024-01-23;ES;CARIACICA;101;292,9;-20.30650512;-40.39488717;45
894;2024-01-23;ES;CARIACICA;101;292,5;-20.30580225;-40.39515138;3
895;2024-01-23;RS;SANTO ANTONIO DA PATRULHA;290;13,9;-29.875334;-50.396614;2
896;2024-01-23;SC;RANCHO QUEIMADO;282;64;-27.696323;-49.052456;7
897;2024-01-23;MG;SAO DOMINGOS DO PRATA;262;157;-19.96304722;-42.81017502;11
898;2024-01-23;SE;ITAPORANGA DAJUDA;101;123;-11.04643101;-37.36490103;5
899;2024-01-23;RJ;BELFORD ROXO;116;180;-22.7651616;-43.4154728;62
900;2024-01-23;MT;RONDONOPOLIS;364;205;-16.45928621;-54.66092345;30
901;2024-01-23;PR;GUAIRACA;376;55;-22.91887641;-52.87661121;6
902;2024-01-23;SP;MIRACATU;116;388;-24.26919492;-47.39740603;10
903;2024-01-07;BA;GAVIAO;324;385,9;-11.48858977;-39.75706888;32
904;2024-01-23;PR;SARANDI;376;183;-23.44159097;-51.87067398;11
905;2024-01-23;SP;ITAPECERICA DA SERRA;116;299;-23.7823995;-46.91522598;6
906;2024-01-23;PR;MAMBORE;369;405,1;-24.3318;-52.6589;6
907;2024-01-23;PA;ITAITUBA;230;1120;-4.37059973;-55.83858313;5
908;2024-01-23;SP;MIRACATU;116;360;-24.11248793;-47.26510606;7
909;2024-01-23;ES;LINHARES;101;148;-19.38787399;-40.06752766;21
910;2024-01-23;MG;IBIA;262;615,8;-19.58551007;-46.32494606;3
911;2024-01-23;SP;GUARULHOS;116;222;-23.47093408;-46.51631097;94
912;2024-01-23;PR;PONTA GROSSA;376;527;-25.278903;-49.920932;2
913;2024-01-23;SC;ITAPEMA;101;149;-27.1089649;-48.61277586;46
914;2024-01-23;MG;IBIA;262;620,8;-19.5840516;-46.40075684;1
915;2024-01-23;MT;RONDONOPOLIS;163;76,6;-16.85115987;-54.70475037;1
916;2024-01-15;MT;JANGADA;364;493;-15.30106797;-56.43607915;8
917;2024-01-23;GO;ITUMBIARA;452;176,8;-18.35517115;-49.38032508;3
918;2024-01-23;RS;SANTANA DA BOA VISTA;392;204;-30.85006125;-53.16776104;6
919;2024-01-23;RS;BOM JESUS;285;74,3;-28.635736;-50.54628;5
920;2024-01-23;PR;TIBAGI;153;399;-24.54576529;-50.69091007;2
921;2024-01-23;SC;ARARANGUA;101;421,3;-29.007157;-49.567217;3
922;2024-01-23;PB;ESPERANCA;104;97;-7.01994564;-35.85788662;5
923;2024-01-23;MG;MEDINA;116;99;-16.426161;-41.490856;2
924;2024-01-23;TO;MIRANORTE;153;405;-9.45445904;-48.57818379;8
925;2024-01-23;RJ;ANGRA DOS REIS;101;481;-23.0120552;-44.28807735;3
926;2024-01-23;PB;JOAO PESSOA;101;89,9;-7.17816256;-34.89989162;2
927;2024-01-23;PA;CASTANHAL;316;69,1;-1.29277675;-47.87507708;6
928;2024-01-23;SP;ITAPECERICA DA SERRA;116;286;-23.70925128;-46.87588966;9
929;2024-01-23;SP;MIRACATU;116;362;-24.1220177;-47.27047772;4
930;2024-01-23;PR;UNIAO DA VITORIA;153;461;-26.23663648;-51.15418777;8
931;2024-01-23;SC;ALFREDO WAGNER;282;111;-27.733616;-49.367538;6
932;2024-01-23;MT;RONDONOPOLIS;364;227;-16.29044795;-54.76386888;6
933;2024-01-23;SC;PAPANDUVA;116;59;-26.37933149;-50.20775008;4
934;2024-01-23;PE;GARANHUNS;423;89,2;-8.83774896;-36.45604009;2
935;2024-01-23;MG;CAMPO FLORIDO;153;148;-19.63284117;-48.85120975;2
936;2024-01-23;BA;RAFAEL JAMBEIRO;116;473;-12.494239;-39.338784;5
937;2024-01-23;MG;UBAPORANGA;116;507,7;-19.61953715;-42.10872923;11
938;2024-01-24;SC;ITAJAI;101;121,7;-26.92103178;-48.70856446;56
939;2024-01-24;RS;PELOTAS;392;61;-31.78533692;-52.35536814;2
940;2024-01-24;ES;SOORETAMA;101;125,4;-19.18496498;-40.09429827;17
941;2024-01-24;SC;GUARAMIRIM;280;46,6;-26.453163;-48.914103;2
942;2024-01-24;BA;CANDIDO SALES;116;908;-15.50312166;-41.2351889;2
943;2024-01-24;SC;BIGUACU;101;190;-27.468056;-48.641712;21
944;2024-01-24;SP;CRUZEIRO;116;31;-22.63966194;-44.93868903;2
945;2024-01-24;RN;PARNAMIRIM;101;108;-5.92825102;-35.26465683;25
946;2024-01-24;PB;CONDE;101;95;-7.22379403;-34.91488195;7
947;2024-01-24;RJ;PIRAI;116;229,3;-22.6768598;-43.83399439;2
948;2024-01-24;PB;JOAO PESSOA;101;88;-7.1710694;-34.89765372;31
949;2024-01-24;SP;GUARULHOS;116;218;-23.457972;-46.479927;85
950;2024-01-24;PR;LARANJEIRAS DO SUL;277;450;-25.36762674;-52.35059397;5
951;2024-01-08;PA;SAO FRANCISCO DO PARA;316;76;-1.30223447;-47.80628622;6
952;2024-01-24;RS;SARANDI;386;135;-27.96036;-52.91103;7
953;2024-01-24;GO;APARECIDA DE GOIANIA;153;519,3;-16.8755;-49.2523;7
954;2024-01-24;PE;PAULISTA;101;55;-7.94806621;-34.9062148;21
955;2024-01-24;PR;CASCAVEL;277;586,4;-24.9649472;-53.4210459;38
956;2024-01-24;MT;PEDRA PRETA;364;178;-16.60487698;-54.47377398;4
957;2024-01-10;MT;ALTO ARAGUAIA;364;32;-17.14412831;-53.42733021;2
958;2024-01-24;MT;PONTES E LACERDA;174;307;-15.07516701;-59.2958684;5
959;2024-01-24;CE;FRECHEIRINHA;222;278;-3.75925239;-40.80011108;9
960;2024-01-24;MG;JOAO PINHEIRO;40;130,2;-17.70612195;-46.28554299;3
961;2024-01-24;SC;BLUMENAU;470;61;-26.87837034;-49.17541808;4
962;2024-01-24;PR;CAMPINA GRANDE DO SUL;116;57,4;-25.28847066;-48.9329365;2
963;2024-01-24;PR;NOVA LARANJEIRAS;277;482;-25.27437517;-52.59403497;4
964;2024-01-24;AM;RIO PRETO DA EVA;174;982,9;-2.11550492;-59.99098778;3
965;2024-01-24;PR;PEROLA DOESTE;163;53;-25.95794198;-53.72316793;3
966;2024-01-24;SP;GUARULHOS;381;88,5;-23.48245;-46.56017;3
967;2024-01-24;MG;BELA VISTA DE MINAS;381;346;-19.85740706;-43.12344309;5
968;2024-01-24;RS;BENTO GONCALVES;470;194,2;-29.05030203;-51.57387285;9
969;2024-01-24;GO;ALEXANIA;60;46,6;-16.144327;-48.60063;4
970;2024-01-24;AL;RIO LARGO;101;76,9;-9.41335597;-35.84073284;1
971;2024-01-24;BA;JAGUAQUARA;116;619;-13.35700606;-40.01713362;5
972;2024-01-24;MT;ALTO GARCAS;364;53,7;-16.97719447;-53.51200104;3
973;2024-01-24;PR;NOVA ESPERANCA;376;135;-23.20194138;-52.19689503;3
974;2024-01-24;BA;RIBEIRA DO POMBAL;110;183;-10.95903398;-38.52134268;10
975;2024-01-24;SC;BLUMENAU;470;58;-26.883879;-49.145622;20
976;2024-01-24;BA;VITORIA DA CONQUISTA;116;815,5;-14.813608;-40.799503;5
977;2024-01-24;PR;CURITIBA;116;115;-25.54451908;-49.30322593;2
978;2024-01-24;RS;SALDANHA MARINHO;285;365,3;-28.387148;-53.020016;3
979;2024-01-24;MT;GUARANTA DO NORTE;163;1111;-9.59553;-54.8985;1
980;2024-01-24;PR;SAO MIGUEL DO IGUACU;277;688,3;-25.34571;-54.237272;5
981;2024-01-24;BA;JAGUAQUARA;116;633,6;-13.47539479;-40.03995749;12
982;2024-01-24;CE;MILAGRES;116;468;-7.25512489;-38.84243882;5
983;2024-01-24;SC;INDAIAL;470;64,4;-26.87033144;-49.21053356;2
984;2024-01-24;RS;ROSARIO DO SUL;290;464,9;-30.232851;-54.756992;5
985;2024-01-24;PA;ITAITUBA;163;469;-5.75265194;-55.73624966;7
986;2024-01-24;MG;FRANCISCO SA;251;492;-16.54433804;-43.59543496;7
987;2024-01-24;ES;DOMINGOS MARTINS;262;75;-20.41504648;-40.90256283;6
988;2024-01-24;MT;RONDONOPOLIS;163;74,5;-16.86819309;-54.71048071;1
989;2024-01-25;SE;LARANJEIRAS;235;20;-10.834111;-37.221916;5
990;2024-01-25;CE;RUSSAS;116;138,5;-4.7466739;-38.07194588;2
991;2024-01-24;CE;BOA VIAGEM;20;172,2;-5.32044231;-39.9240477;4
992;2024-01-25;GO;CAMPINORTE;153;149;-14.07319;-49.096848;2
993;2024-01-24;SC;BALNEARIO CAMBORIU;101;137,3;-27.0157238;-48.61192763;86
994;2024-01-21;SC;CHAPECO;480;123,9;-27.00196618;-52.64485359;2
995;2024-01-25;SP;SAO JOSE DOS CAMPOS;116;140,3;-23.16577714;-45.81246193;15
996;2024-01-25;RJ;RIO DE JANEIRO;116;169;-22.816206;-43.324463;41
997;2024-01-25;RN;RIACHUELO;304;231;-5.75251767;-35.89627591;6
998;2024-01-25;MG;BETIM;381;6;-19.96825;-44.198708;45
999;2024-01-25;PE;JABOATAO DOS GUARARAPES;101;89;-8.20760697;-34.98372005;13
1000;2024-01-25;PI;DOM EXPEDITO LOPES;316;273,3;-6.94208609;-41.74100006;6
1001;2024-01-25;RJ;CAMPOS DOS GOYTACAZES;101;92;-21.859215;-41.532116;4
1002;2024-01-25;PR;LAPA;476;232,2;-25.88097521;-50.01013601;3
1003;2024-01-25;SP;BARRA DO TURVO;116;560;-24.99813554;-48.51081848;4
1004;2024-01-25;SC;MONTE CASTELO;116;107,8;-26.75568818;-50.32812388;6
1005;2024-01-25;PR;UBIRATA;369;429,4;-24.4486;-52.8448;6
1006;2024-01-25;MS;ANASTACIO;262;472,9;-20.51050476;-55.64403198;7
1007;2024-01-25;BA;JEQUIE;116;657,5;-13.672783;-40.09670093;11
1008;2024-01-21;BA;ITAPEBI;101;657;-16.06028751;-39.61872714;4
1009;2024-01-25;SC;INDAIAL;470;66,5;-26.872158;-49.23127;19
1010;2024-01-25;MS;CAMPO GRANDE;262;363,3;-20.50499307;-54.72803808;17
1011;2024-01-25;SP;GUARULHOS;116;222;-23.474442;-46.522883;3
1012;2024-01-25;MG;JEQUITAI;365;67,5;-17.05655714;-44.33145888;2
1013;2024-01-25;BA;IRAJUBA;116;586;-13.10964805;-39.99424704;2
1014;2024-01-25;SC;ARAQUARI;280;22,9;-26.37092616;-48.70204099;29
1015;2024-01-25;CE;CAUCAIA;20;391;-3.84905477;-38.77921916;5
1016;2024-01-25;SC;SAO MIGUEL DO OESTE;163;74;-26.70200479;-53.51350653;4
1017;2024-01-25;PR;QUATRO BARRAS;116;74;-25.36517687;-49.04223028;3
1018;2024-01-25;SC;JOINVILLE;101;39;-26.30774903;-48.87915664;3
1019;2024-01-25;ES;SAO MATEUS;101;69,7;-18.73556097;-39.86069526;13
1020;2024-01-25;PR;ORTIGUEIRA;376;315;-24.02668686;-51.09740947;6
1021;2024-01-25;BA;TEIXEIRA DE FREITAS;101;854;-17.55373894;-39.7231981;1
1022;2024-01-25;MA;PRESIDENTE MEDICI;316;95,7;-2.374514;-45.821014;2
1023;2024-01-25;RJ;MAGE;116;117;-22.60276206;-43.02514183;3
1024;2024-01-25;ES;IBATIBA;262;182;-20.29633169;-41.68745393;3
1025;2024-01-25;MG;LUZ;262;553,6;-19.71819541;-45.89938601;15
1026;2024-01-25;ES;VENDA NOVA DO IMIGRANTE;262;122;-20.33756085;-41.19989497;3
1027;2024-01-21;MS;SAO GABRIEL DO OESTE;163;617,3;-19.38299179;-54.57536165;5
1028;2024-01-25;SC;IRANI;153;58,7;-26.97134359;-51.85443878;4
1029;2024-01-25;PR;GUARAPUAVA;277;341;-25.34479123;-51.40204092;3
1030;2024-01-25;ES;MIMOSO DO SUL;101;450,4;-21.14473102;-41.27036927;6
1031;2024-01-25;RO;JARU;364;416;-10.497604;-62.421074;3
1032;2024-01-25;MG;FRUTAL;364;32,8;-20.00318119;-48.94346952;2
1033;2024-01-26;RJ;SAO JOAO DE MERITI;116;172;-22.80188151;-43.35043673;43
1034;2024-01-26;CE;JATI;116;526,1;-7.6869;-39.00728;2
1035;2024-01-05;PB;ALCANTIL;104;182,3;-7.67735252;-36.06914717;5
1036;2024-01-26;PR;TIBAGI;376;421;-24.72548801;-50.53830472;6
1037;2024-01-26;MS;NOVA ALVORADA DO SUL;163;364,2;-21.47264252;-54.38623182;3
1038;2024-01-26;ES;CARIACICA;101;282,2;-20.22882158;-40.36623228;3
1039;2024-01-26;MT;JACIARA;364;275;-15.95085604;-54.98237599;21
1040;2024-01-26;PR;CURITIBA;376;599;-25.52629711;-49.32958412;14
1041;2024-01-26;PR;PONTA GROSSA;373;179,6;-25.0403878;-50.24381518;4
1042;2024-01-26;ES;ITAPEMIRIM;101;403,9;-20.89541789;-41.00720306;14
1043;2024-01-26;PB;CAAPORA;101;124;-7.46746892;-34.9772648;8
1044;2024-01-26;PE;ABREU E LIMA;101;50,1;-7.912422;-34.90054;3
1045;2024-01-26;MG;CARMO DA CACHOEIRA;381;719;-21.45321803;-45.21174621;7
1046;2024-01-26;MG;SIMAO PEREIRA;40;825;-21.9735272;-43.28541842;4
1047;2024-01-26;MT;JACIARA;364;267,4;-15.9882532;-54.92679723;4
1048;2024-01-26;PI;DOM EXPEDITO LOPES;316;288;-6.98459811;-41.63276312;4
1049;2024-01-26;RS;PASSO FUNDO;285;294,8;-28.234547;-52.384975;6
1050;2024-01-26;MG;SABARA;381;453;-19.85197588;-43.88851019;12
1051;2024-01-26;MG;DIVISA ALEGRE;116;5;-15.74846553;-41.33119538;5
1052;2024-01-26;MG;PARAOPEBA;40;437,1;-19.23379;-44.43244;4
1053;2024-01-26;BA;POCOES;116;750;-14.42946301;-40.35310914;2
1054;2024-01-26;MG;GRAO MOGOL;251;366;-16.25933928;-42.63553619;1
1055;2024-01-26;ES;MARECHAL FLORIANO;262;59,1;-20.420203;-40.78205;2
1056;2024-01-26;BA;FILADELFIA;407;169,1;-10.83017998;-40.11418081;5
1057;2024-01-26;PR;MORRETES;277;20;-25.55344668;-48.66191283;2
1058;2024-01-26;MT;ROSARIO OESTE;70;600;-15;-56;2
1059;2024-01-26;ES;JOAO NEIVA;101;196;-19.70366692;-40.33122605;3
1060;2024-01-26;PR;JANDAIA DO SUL;376;216,4;-23.59717604;-51.615043;6
1061;2024-01-06;RJ;PIRAI;116;238;-22.66466911;-43.88337304;9
1062;2024-01-26;MT;SANTO ANTONIO DO LEVERGER;364;341,8;-15.831818;-55.50162;13
1063;2024-01-26;BA;MANOEL VITORINO;116;721,5;-14.20471303;-40.27150419;15
1064;2024-01-26;MG;RIBEIRAO DAS NEVES;40;515;-19.8090079;-44.09493479;18
1065;2024-01-26;ES;MIMOSO DO SUL;101;439,9;-21.07264705;-41.22787382;10
1066;2024-01-26;SP;MARILIA;153;262;-22.28307122;-49.91788954;3
1067;2024-01-26;BA;SALVADOR;324;613;-12.85531601;-38.42055197;13
1068;2024-01-26;MT;JACIARA;364;292;-15.89220915;-55.1038862;9
1069;2024-01-27;SP;GUARATINGUETA;116;59,4;-22.78555649;-45.15339465;20
1070;2024-01-26;PR;MATELANDIA;277;653,6;-25.213354;-53.95143726;7
1071;2024-01-27;PR;SAO MATEUS DO SUL;476;267,1;-25.891033;-50.282455;3
1072;2024-01-27;MG;CURVELO;40;388,9;-18.93174501;-44.68450988;2
1073;2024-01-27;CE;FORTALEZA;116;3;-3.77866493;-38.51490171;48
1074;2024-01-26;PE;PARNAMIRIM;232;555;-8.089178;-39.532785;3
1075;2024-01-27;GO;CUMARI;50;305;-18.3636;-48.0502;6
1076;2024-01-27;MG;PARAOPEBA;40;444;-19.28815;-44.392;22
1077;2024-01-27;MG;BELO HORIZONTE;40;531,9;-19.92314507;-44.01904106;3
1078;2024-01-27;MT;MATUPA;163;1035;-10.209672;-54.96302;4
1079;2024-01-27;MT;CAMPO NOVO DO PARECIS;364;863;-13.86421004;-57.96808163;4
1080;2024-01-27;SC;XANXERE;282;496,2;-26.87675019;-52.3307525;3
1081;2024-01-27;TO;PRESIDENTE KENNEDY;153;290;-8.44383195;-48.48433839;4
1082;2024-01-27;PR;CAMPO LARGO;277;125,3;-25.449552;-49.595375;10
1083;2024-01-27;SC;ITAJAI;101;126;-26.95564404;-48.67978366;25
1084;2024-01-27;BA;JAGUAQUARA;116;621;-13.37441002;-40.01977289;33
1085;2024-01-27;MG;PIRAPORA;365;159;-17.35543992;-44.91271708;4
1086;2024-01-27;MG;SABARA;381;441,9;-19.81604176;-43.80389901;6
1087;2024-01-27;SC;TUBARAO;101;333;-28.46630107;-48.99653096;30
1088;2024-01-27;MG;FERVEDOURO;116;645,4;-20.6788531;-42.27154792;3
1089;2024-01-27;SP;SILVEIRAS;116;26,2;-22.61419397;-44.90005302;18
1090;2024-01-27;CE;TAUA;20;103;-5.86599306;-40.18363276;3
1091;2024-01-27;RS;SAO LUIZ GONZAGA;285;570;-28.41465397;-54.98897552;7
1092;2024-01-27;PR;ORTIGUEIRA;376;352;-24.25636787;-50.89764987;3
1093;2024-01-27;SC;PORTO UNIAO;280;305,7;-26.26625102;-51.05981502;2
1094;2024-01-27;PB;CONDE;101;94;-7.21483297;-34.9117521;10
1095;2024-01-27;BA;SANTO ANTONIO DE JESUS;101;264;-12.98461648;-39.29083352;3
1096;2024-01-27;PA;ALTAMIRA;230;647;-3.22366;-52.27107;8
1097;2024-01-27;BA;TUCANO;116;270;-10.91498;-38.833224;4
1098;2024-01-27;PE;TRINDADE;316;57,5;-7.74765771;-40.2710428;6
1099;2024-01-27;RO;OURO PRETO DO OESTE;364;382;-10.72605374;-62.23652595;13
1100;2024-01-27;MT;AGUA BOA;158;562;-14.00253804;-52.14939588;2
1101;2024-01-27;PE;GARANHUNS;424;86;-8.86552886;-36.50934159;18
1102;2024-01-27;RO;PRESIDENTE MEDICI;364;296;-11.280945;-61.90195;2
1103;2024-01-27;GO;ANAPOLIS;414;439,3;-16.274445;-48.940871;3
1104;2024-01-27;PR;SAO MATEUS DO SUL;476;282;-25.883417;-50.430523;5
1105;2024-01-27;MS;RIO VERDE DE MATO GROSSO;163;658;-19.09764646;-54.77349758;5
1106;2024-01-27;ES;SERRA;101;278,8;-20.21782167;-40.33571547;2
1107;2024-01-27;PR;PONTA GROSSA;376;466,3;-24.994952;-50.362462;7
1108;2024-01-27;PR;IMBITUVA;373;231;-25.18288258;-50.67781009;5
1109;2024-01-27;MT;COMODORO;364;1214;-13.79273567;-59.44652101;6
1110;2024-01-28;RS;ARROIO DOS RATOS;290;157,3;-30.107595;-51.778015;7
1111;2024-01-28;MG;FRANCISCO SA;251;472,9;-16.4669101;-43.43947986;32
1112;2024-01-28;BA;ENCRUZILHADA;116;919,6;-15.588564;-41.280855;2
1113;2024-01-28;BA;WANDERLEY;242;670;-12.229;-43.926;3
1114;2024-01-28;TO;ARAGUAINA;153;171,4;-7.40185502;-48.35944785;5
1115;2024-01-28;PB;GURINHEM;230;90,6;-7.17772679;-35.41638851;2
1116;2024-01-28;PR;ARAUCARIA;476;155,9;-25.59060079;-49.41035628;4
1117;2024-01-28;PR;ORTIGUEIRA;376;343,9;-24.2017732;-50.94742728;8
1118;2024-01-28;BA;ENCRUZILHADA;116;912;-15.45480006;-41.22945884;6
1119;2024-01-28;SC;FAXINAL DOS GUEDES;282;491,6;-26.874599;-52.282806;7
1120;2024-01-28;MG;BELA VISTA DE MINAS;381;339;-19.81029199;-43.06304997;3
1121;2024-01-28;SC;XANXERE;282;509,3;-26.890533;-52.457096;7
1122;2024-01-28;BA;VITORIA DA CONQUISTA;116;804,2;-14.765166;-40.706462;3
1123;2024-01-20;ES;PEDRO CANARIO;101;4;-18.2058992;-39.93492691;8
1124;2024-01-28;BA;ITATIM;116;521;-12.68846804;-39.68756198;3
1125;2024-01-28;MG;UBAPORANGA;116;515;-19.68778501;-42.11758577;9
1126;2024-01-28;GO;MINEIROS;364;269;-17.668106;-52.302914;2
1127;2024-01-28;SC;XANXERE;282;507;-26.886171;-52.43911;8
1128;2024-01-28;PE;IGARASSU;101;42,1;-7.83038346;-34.91426785;14
1129;2024-01-28;MT;PONTES E LACERDA;174;268;-15.375735;-59.183345;3
1130;2024-01-28;PR;VENTANIA;153;144,6;-24.11223991;-50.24301162;3
1131;2024-01-28;SC;MARACAJA;101;400,9;-28.84846615;-49.4346268;5
1132;2024-01-28;MA;SANTA LUZIA;222;460;-4.15866787;-46.00621557;3
1133;2024-01-29;CE;RUSSAS;116;156;-4.88406994;-38.0189479;5
1134;2024-01-28;RS;TIO HUGO;386;215,6;-28.588412;-52.600226;15
1135;2024-01-28;MS;RIO VERDE DE MATO GROSSO;163;665;-19.04496622;-54.81017934;3
1136;2024-01-28;MG;ITUIUTABA;365;761,4;-18.965055;-49.5192;9
1137;2024-01-28;MG;BAEPENDI;267;290,4;-21.92624458;-44.81037679;2
1138;2024-01-28;BA;LUIS EDUARDO MAGALHAES;242;901;-12.11318006;-45.96027374;9
1139;2024-01-29;SP;ITAPECERICA DA SERRA;116;287;-23.71441779;-46.87929634;11
1140;2024-01-28;MG;SAO DOMINGOS DO PRATA;262;174;-19.94016903;-42.95070206;3
1141;2024-01-29;MG;SANTOS DUMONT;40;747,7;-21.4328731;-43.55221915;11
1142;2024-01-29;PR;BALSA NOVA;277;137;-25.470618;-49.685526;7
1143;2024-01-29;PR;PAULA FREITAS;476;338;-26.15086;-50.876347;3
1144;2024-01-29;RS;CANGUCU;392;125;-31.36506;-52.72544;9
1145;2024-01-29;SP;CAJATI;116;519;-24.88391594;-48.22626356;3
1146;2024-01-29;MG;IPATINGA;381;260;-19.53123633;-42.62069343;4
1147;2024-01-29;PR;PARANAGUA;277;3;-25.544272;-48.559775;3
1148;2024-01-29;RJ;CAMPOS DOS GOYTACAZES;101;66;-21.76090387;-41.34788959;20
1149;2024-01-05;RJ;ITAGUAI;101;397;-22.871171;-43.745031;2
1150;2024-01-29;MG;UBERABA;50;172;-19.75402507;-47.98051917;4
1151;2024-01-29;MG;CAREACU;381;821;-22.11209226;-45.74742779;8
1152;2024-01-29;DF;BRASILIA;20;28;-15.598319;-47.621925;12
1153;2024-01-29;SC;GUARUJA DO SUL;163;116;-26.35946595;-53.53565788;5
1154;2024-01-29;MG;CAMPANARIO;116;342,2;-18.338596;-41.766617;5
1155;2024-01-29;CE;FORTALEZA;116;11,7;-3.84394724;-38.49891546;37
1156;2024-01-29;PR;IRATI;277;240;-25.46360541;-50.55589898;4
1157;2024-01-29;RJ;ANGRA DOS REIS;101;485;-22.98573526;-44.29709764;16
1158;2024-01-29;RS;PELOTAS;392;72,1;-31.721104;-52.389843;15
1159;2024-01-29;MG;LEOPOLDINA;267;11;-21.56999426;-42.70830382;5
1160;2024-01-29;GO;ITUMBIARA;452;167,6;-18.33128292;-49.45148796;4
1161;2024-01-29;SE;ITAPORANGA DAJUDA;101;115;-11.00451077;-37.30888444;5
1162;2024-01-29;MT;RONDONOPOLIS;163;119;-16.505412;-54.65154;2
1163;2024-01-29;RS;PELOTAS;116;525,4;-31.7359522;-52.39349776;19
1164;2024-01-29;MG;CURVELO;40;413,5;-19.13719395;-44.61662717;5
1165;2024-01-29;PR;CURITIBA;376;601;-25.537054;-49.31404;12
1166;2024-01-29;PB;CRUZ DO ESPIRITO SANTO;230;59,3;-7.2043;-35.1305;7
1167;2024-01-29;GO;RIO VERDE;60;381;-17.783349;-50.898516;2
1168;2024-01-29;RO;ARIQUEMES;364;523;-9.85234299;-63.05883787;10
1169;2024-01-29;BA;BREJOES;116;576;-13.0913246;-39.9630336;3
1170;2024-01-29;SP;REGISTRO;116;430,9;-24.40730885;-47.7459871;8
1171;2024-01-29;MG;GRAO MOGOL;251;427,8;-16.33690716;-43.13798285;7
1172;2024-01-29;PB;JOAO PESSOA;101;88;-7.16881637;-34.89706993;4
1173;2024-01-29;PR;CAMPO LARGO;277;108;-25.436375;-49.443632;1
1174;2024-01-29;SC;NAVEGANTES;470;4;-26.861937;-48.681618;14
1175;2024-01-29;SP;BARRA DO TURVO;116;557;-24.99089107;-48.50734616;2
1176;2024-01-30;RS;SANTANA DO LIVRAMENTO;158;548,2;-30.82738156;-55.34514608;3
1177;2024-01-30;CE;JAGUARIBE;116;325;-6.03230093;-38.64455732;2
1178;2024-01-30;SC;JOINVILLE;101;38,5;-26.25472505;-48.90561309;14
1179;2024-01-30;MS;SAO GABRIEL DO OESTE;163;609;-19.4409361;-54.53079011;5
1180;2024-01-30;MS;DOURADOS;463;7,4;-22.25364476;-54.87542582;3
1181;2024-01-30;GO;BARRO ALTO;80;134;-14.96601325;-48.93447876;4
1182;2024-01-30;MG;PLANURA;364;1;-20.13824;-48.702347;12
1183;2024-01-30;AM;HUMAITA;230;612;-7.51704445;-63.03054929;2
1184;2024-01-29;PE;PETROLINA;428;187;-9.35604301;-40.47854198;29
1185;2024-01-30;MG;NOVA SERRANA;262;432,8;-19.89018451;-44.89041875;14
1186;2024-01-30;MG;EXTREMA;381;938;-22.81742326;-46.29383902;5
1187;2024-01-30;RJ;RIO DE JANEIRO;116;170;-22.81113183;-43.3336729;54
1188;2024-01-30;MG;BAEPENDI;267;286,3;-21.92600738;-44.78319168;2
1189;2024-01-30;SC;RANCHO QUEIMADO;282;64,2;-27.696963;-49.054121;4
1190;2024-01-30;MG;UBERLANDIA;50;72,5;-18.85140204;-48.25345932;61
1191;2024-01-30;RJ;PARACAMBI;116;223;-22.68972504;-43.801317;2
1192;2024-01-30;MS;JARDIM;267;482,1;-21.48097208;-56.15576902;4
1193;2024-01-30;BA;CAPIM GROSSO;407;207;-11.16499996;-40.05247087;3
1194;2024-01-30;PB;SANTA LUZIA;230;282;-6.9203;-36.8532;10
1195;2024-01-30;RJ;MACAE;101;180;-22.40868134;-41.99838761;5
1196;2024-01-29;BA;PONTO NOVO;407;172;-10.85708513;-40.11203125;7
1197;2024-01-30;MT;BARRA DO GARCAS;70;7;-15.87783366;-52.31337829;3
1198;2024-01-30;MT;LUCAS DO RIO VERDE;163;660;-13.296;-56.036;3
1199;2024-01-30;ES;SOORETAMA;101;124;-19.17652792;-40.09118118;9
1200;2024-01-30;SC;LAGES;116;247,9;-27.81262488;-50.36859817;10
1201;2024-01-30;RS;PORTO ALEGRE;290;94;-29.973856;-51.197853;25
1202;2024-01-30;PE;RECIFE;232;5;-8.06795766;-34.94535414;23
1203;2024-01-30;PR;BALSA NOVA;277;138;-25.47604973;-49.71521419;11
1204;2024-01-30;RO;PORTO VELHO;364;703;-8.80021523;-63.79557792;6
1205;2024-01-30;MT;JACIARA;364;280,1;-15.9364519;-55.0199037;4
1206;2024-01-30;SP;JOSE BONIFACIO;153;114,3;-21.12117412;-49.69084075;16
1207;2024-01-30;BA;RIACHAO DAS NEVES;135;127;-11.77625493;-44.89703792;14
1208;2024-01-30;CE;TIANGUA;222;312;-3.71699311;-40.9914242;4
1209;2024-01-30;RN;PARNAMIRIM;304;304,9;-5.88691267;-35.27498603;1
1210;2024-01-30;MG;MONTES CLAROS;365;2,6;-16.72627608;-43.88021191;9
1211;2024-01-30;SC;IMBITUBA;101;294;-28.29220304;-48.71018095;6
1212;2024-01-30;PE;SAO LOURENCO DA MATA;408;100;-8.04364056;-35.01674995;9
1213;2024-01-30;RJ;PIRAI;116;225;-22.679905;-43.814217;6
1214;2024-01-30;SC;IMBITUBA;101;295;-28.29854333;-48.71633767;4
1215;2024-01-30;SC;CHAPECO;480;123,7;-27.00173676;-52.64475703;2
1216;2024-01-30;ES;CACHOEIRO DE ITAPEMIRIM;101;415;-20.93222599;-41.0792708;8
1217;2024-01-30;GO;BOM JARDIM DE GOIAS;158;54;-16.25924428;-52.04553823;7
1218;2024-01-30;ES;SERRA;101;270;-20.22662056;-40.27075088;76
1219;2024-01-30;SE;AREIA BRANCA;235;31,9;-10.769286;-37.299343;11
1220;2024-01-30;SC;AGUAS MORNAS;282;47,5;-27.721771;-48.934837;4
1221;2024-01-30;BA;ITABUNA;415;58;-14.856288;-39.395367;1
1222;2024-01-30;RO;PORTO VELHO;364;692;-8.79733425;-63.69814797;7
1223;2024-01-30;PR;CURITIBA;476;146;-25.551186;-49.330109;6
1224;2024-01-30;ES;BREJETUBA;262;137,2;-20.23526078;-41.34327555;5
1225;2024-01-30;PE;RECIFE;232;6,6;-8.07079525;-34.9535389;24
1226;2024-01-30;PR;CAMBE;369;163;-23.2970736;-51.2772632;9
1227;2024-01-30;SP;MAIRIPORA;381;67,5;-23.33226094;-46.57675379;8
1228;2024-01-30;MG;MONTE ALEGRE DE MINAS;365;685;-18.86128507;-48.8629942;10
1229;2024-01-30;RJ;CAMPOS DOS GOYTACAZES;101;103,8;-21.9108478045;-41.6113219576;1
1230;2024-01-30;PR;ARAPONGAS;369;192,8;-23.47664;-51.42371;4
1231;2024-01-30;PE;RECIFE;101;63,9;-8.00800604;-34.93756535;25
1232;2024-01-30;MG;CONTAGEM;381;485,8;-19.95826094;-44.05921101;29
1233;2024-01-30;SP;ROSEIRA;116;79,2;-22.89420903;-45.29471098;3
1234;2024-01-30;MT;CAMPO VERDE;70;373;-15.4889926;-55.06380512;4
1235;2024-01-30;MT;RIBEIRAO CASCALHEIRA;158;408,9;-12.84775719;-51.78515096;6
1236;2024-01-31;SC;SAO JOSE;101;209,8;-27.6166068;-48.6455902;4
1237;2024-01-31;MS;CAMPO GRANDE;163;441;-20.80335397;-54.51953585;3
1238;2024-01-31;PR;PONTA GROSSA;376;526,4;-25.27547369;-49.9268961;2
1239;2024-01-31;PI;PICOS;316;318;-7.088704;-41.398729;3
1240;2024-01-31;SP;SAO PAULO;381;86;-23.45930499;-46.57161179;52
1241;2024-01-31;PR;FOZ DO IGUACU;277;722;-25.49494908;-54.52095097;16
1242;2024-01-31;SP;JUQUITIBA;116;335;-23.96963408;-47.1337469;2
1243;2024-01-31;BA;SANTA TERESINHA;116;505;-12.61278659;-39.5685887;3
1244;2024-01-31;MG;BELA VISTA DE MINAS;381;341;-19.84403064;-43.10352396;9
1245;2024-01-31;SE;ITAPORANGA DAJUDA;349;118,4;-11.026115;-37.328815;2
1246;2024-01-31;PR;SAO JOSE DOS PINHAIS;376;614;-25.57084314;-49.19356398;8
1247;2024-01-31;PR;MAUA DA SERRA;376;307,8;-23.950248;-51.119076;2
1248;2024-01-15;BA;BARREIRAS;242;823;-12.116675;-45.242188;5
1249;2024-01-31;RN;CAMPO REDONDO;226;137,2;-6.19997914;-36.19832509;3
1250;2024-01-31;MG;MONTE ALEGRE DE MINAS;365;704;-18.88169079;-49.03599797;8
1251;2024-01-31;BA;ITABELA;101;725;-16.59628792;-39.55057482;2
1252;2024-01-31;RJ;SILVA JARDIM;101;234,1;-22.60282105;-42.38831176;3
1253;2024-01-31;SC;BALNEARIO CAMBORIU;101;142;-27.056089;-48.599449;34
1254;2024-01-31;RJ;DUQUE DE CAXIAS;40;110;-22.68289906;-43.28549346;42
1255;2024-01-31;MG;SAO GONCALO DO SAPUCAI;381;802;-21.98685449;-45.65711903;3
1256;2024-01-31;BA;PLANALTO;116;783,8;-14.65785594;-40.46029014;3
1257;2024-01-31;SC;VARGEM BONITA;282;423,3;-26.99556;-51.752289;5
1258;2024-01-31;PE;IGARASSU;101;43,3;-7.84753808;-34.90977038;35
1259;2024-01-31;PA;BREJO GRANDE DO ARAGUAIA;230;29,5;-5.65640017;-48.39762725;4
1260;2024-01-31;MG;JUIZ DE FORA;267;88;-21.76570445;-43.28755086;3
1261;2024-01-31;SC;RIO NEGRINHO;280;129;-26.24586437;-49.52284615;22
1262;2024-01-31;SC;GARUVA;101;13;-26.08986803;-48.86345096;13
1263;2024-01-31;BA;MASCOTE;101;616;-15.75042705;-39.4801369;4
1264;2024-01-31;MG;ITATIAIUCU;381;543,9;-20.27336801;-44.42585498;6
1265;2024-01-31;RJ;TRES RIOS;40;32;-22.19935287;-43.15764401;4
1266;2024-01-31;MT;AGUA BOA;158;625;-14.49276784;-52.28569031;4
1267;2024-01-31;MG;CAREACU;381;811,9;-22.05313393;-45.6960471;2
1268;2024-01-31;PR;MARINGA;376;167,2;-23.40324167;-51.99632075;12
1269;2024-01-31;MG;NOVA ERA;381;332;-19.79994695;-43.05451587;4
1270;2024-01-31;RJ;CAMPOS DOS GOYTACAZES;101;54;-21.66937699;-41.31111673;2
1271;2024-01-31;SC;ARAQUARI;101;57,3;-26.43802986;-48.8039732;2
1272;2024-01-31;MG;JAGUARACU;381;283;-19.61757501;-42.78412299;4
1273;2024-02-01;PR;GUARAPUAVA;373;369;-25.40730643;-51.68363571;2
1274;2024-02-01;CE;CHOROZINHO;122;6,5;-4.34443014;-38.4811605;2
1275;2024-02-01;ES;MIMOSO DO SUL;101;443,5;-21.09789425;-41.25305078;7
1276;2024-02-01;PR;PAULA FREITAS;476;339;-26.157049;-50.883564;8
1277;2024-02-01;RS;BENTO GONCALVES;470;220,1;-29.19657802;-51.518801;3
1278;2024-02-01;MT;SINOP;163;829;-11.91238895;-55.50843787;6
1279;2024-02-01;PR;ANTONINA;116;19;-25.103087;-48.72037;2
1280;2024-02-01;PR;SANTA LUCIA;163;151;-25.41040897;-53.5718868;7
1281;2024-02-01;RS;NOVA SANTA RITA;386;436;-29.85672118;-51.26226604;3
1282;2024-02-01;SC;ITAJAI;101;116;-26.87905605;-48.72603512;57
1283;2024-02-01;RJ;MACAE;101;158,2;-22.26971348;-41.86750276;3
1284;2024-02-01;RS;PANTANO GRANDE;290;203;-30.173361;-52.247738;7
1285;2024-02-01;MA;CAXIAS;316;518,1;-4.767323;-43.61478;1
1286;2024-02-01;PR;JANDAIA DO SUL;369;232;-23.6115527;-51.66719913;4
1287;2024-02-01;RO;PORTO VELHO;364;710;-8.78621576;-63.85712687;17
1288;2024-02-01;SC;IRANI;282;434;-26.96930688;-51.85425639;5
1289;2024-02-01;MT;SINOP;163;877;-11.62068789;-55.43271445;2
1290;2024-02-01;SC;CHAPECO;480;128,7;-27.03781899;-52.63432603;9
1291;2024-02-01;RS;SANTA MARIA;158;326,4;-29.70975376;-53.80284617;5
1292;2024-02-01;MG;JEQUITAI;365;107,2;-17.19233135;-44.65121209;2
1293;2024-02-01;MS;COXIM;163;739;-18.43652888;-54.69939724;6
1294;2024-01-16;PI;PIRIPIRI;343;204,6;-4.407514;-41.872746;6
1295;2024-02-01;SP;ATIBAIA;381;47;-23.18904617;-46.58407757;7
1296;2024-02-01;SC;GARUVA;101;7;-26.03593;-48.860302;12
1297;2024-02-01;MG;UBERABA;50;194,8;-19.887439;-47.848374;21
1298;2024-02-01;BA;OLIVEIRA DOS BREJINHOS;242;541;-12.086301;-42.93657;4
1299;2024-02-01;RJ;PETROPOLIS;40;82;-22.51183137;-43.23076171;15
1300;2024-02-01;RS;SOLEDADE;386;223,6;-28.65077665;-52.61333227;7
1301;2024-02-01;PR;GENERAL CARNEIRO;153;504,2;-26.52956524;-51.36932373;6
1302;2024-01-05;PA;MARABA;230;117;-5.35569904;-49.09047302;27
1303;2024-02-01;SE;LARANJEIRAS;101;77;-10.776609;-37.13439;11
1304;2024-02-01;PR;SAO JOSE DOS PINHAIS;116;105,4;-25.570093;-49.217762;2
1305;2024-02-01;MG;CARANDAI;40;661;-20.90921243;-43.82903337;2
1306;2024-02-01;GO;APARECIDA DE GOIANIA;153;513;-16.8244;-49.2421;7
1307;2024-02-01;RO;JARU;364;456,5;-10.26246515;-62.70509219;7
1308;2024-02-01;MT;SINOP;163;829;-11.91316697;-55.50857306;1
1309;2024-02-02;SP;MIRACATU;116;394;-24.28717454;-47.45143994;3
1310;2024-02-02;BA;CONCEICAO DO JACUIPE;101;153;-12.35121978;-38.77466218;2
1311;2024-02-02;PR;TERRA ROXA;163;335;-24.222785;-54.199508;4
1312;2024-02-02;PB;MAMANGUAPE;101;35,2;-6.79401305;-35.13707183;2
1313;2024-02-02;CE;CAUCAIA;222;12;-3.76479979;-38.66897196;7
1314;2024-02-01;RO;VILHENA;364;64,5;-12.50476617;-60.470767;3
1315;2024-02-01;SC;AGUA DOCE;153;0,6;-26.61054;-51.485115;1
1316;2024-02-02;CE;BREJO SANTO;116;505,4;-7.48840721;-38.98392298;5
1317;2024-02-02;CE;JAGUARIBE;116;324;-6.03216426;-38.64449501;4
1318;2024-02-02;PR;CURITIBA;376;595;-25.49317991;-49.34370776;14
1319;2024-02-02;PR;CAMPO LARGO;277;117,5;-25.435;-49.524;4
1320;2024-02-02;MG;BICAS;267;70;-21.74480506;-43.13260598;5
1321;2024-02-02;SC;PALHOCA;101;236;-27.82686935;-48.62967622;2
1322;2024-02-02;SP;CAJATI;116;506;-24.79704815;-48.2145174;42
1323;2024-02-02;BA;TANQUINHO;324;464;-11.94687258;-39.19751621;4
1324;2024-01-29;RO;PORTO VELHO;364;1029;-9.75744335;-66.25566993;1
1325;2024-02-02;MS;MIRANDA;262;644,5;-19.77042509;-56.95811316;7
1326;2024-02-02;ES;SOORETAMA;101;119,8;-19.1438532;-40.0751016;8
1327;2024-02-02;MG;CAMBUI;381;907;-22.68549338;-46.08270467;5
1328;2024-02-02;TO;CARIRI DO TOCANTINS;153;680;-11.78947895;-49.1176771;2
1329;2024-02-02;RS;JULIO DE CASTILHOS;158;249,7;-29.10973298;-53.65093978;10
1330;2024-02-02;MS;PONTA PORA;463;106,5;-22.59656312;-55.66536809;2
1331;2024-02-02;SP;GUARULHOS;116;214;-23.44333014;-46.44531294;33
1332;2024-02-02;SP;JACAREI;116;161,6;-23.27617003;-45.97592098;42
1333;2024-02-02;MG;FERVEDOURO;116;649,4;-20.720077;-42.278062;4
1334;2024-02-02;RS;POUSO NOVO;386;303,1;-29.174147;-52.203892;2
1335;2024-01-04;PE;OURICURI;316;62,3;-7.77941812;-40.24368806;2
1336;2024-02-02;GO;ALEXANIA;60;26;-16.0963;-48.5202;68
1337;2024-01-29;MS;TRES LAGOAS;262;10,6;-20.81622397;-51.70151002;8
1338;2024-02-02;MG;NOVA LIMA;40;546;-20.01976644;-43.97157669;2
1339;2024-02-02;MG;SANTA LUZIA;381;442,7;-19.8092926;-43.7790924;3
1340;2024-02-02;SP;BARRA DO TURVO;116;566;-25.041697;-48.549812;3
1341;2024-02-02;PE;RECIFE;101;59,3;-7.97708575;-34.92607318;19
1342;2024-02-02;PR;BANDEIRANTES;369;52;-23.11109529;-50.33437729;2
1343;2024-02-02;SP;PARIQUERA-ACU;116;464;-24.63517676;-47.90877722;2
1344;2024-02-02;PR;CASCAVEL;277;595,5;-24.98154632;-53.50141969;10
1345;2024-02-02;RS;LAJEADO;386;344;-29.44374043;-51.9821012;2
1346;2024-02-02;MG;ARGIRITA;267;21,3;-21.59274447;-42.78538272;5
1347;2024-02-02;MG;SAO GONCALO DO PARA;262;427;-19.8850241;-44.77734698;3
1348;2024-02-02;RJ;AREAL;40;37;-22.22225309;-43.12711619;2
1349;2024-02-02;SC;ARAQUARI;101;56,5;-26.43207484;-48.82263984;7
1350;2024-02-02;SP;GUARULHOS;116;209;-23.42511799;-46.40221101;32
1351;2024-02-02;GO;MINEIROS;364;304;-17.524496;-52.530273;4
1352;2024-02-02;PR;PONTA GROSSA;376;469;-25.03974803;-50.27969674;4
1353;2024-02-02;PR;ORTIGUEIRA;376;316;-24.0001061;-51.0853817;2
1354;2024-02-02;PR;PONTA GROSSA;373;172,6;-25.08139932;-50.19200981;10
1355;2024-01-23;MT;ALTO ARAGUAIA;364;27;-17.17425847;-53.39357512;8
1356;2024-02-02;GO;CAMPINORTE;153;173;-14.29261;-49.15028;2
1357;2024-02-03;BA;VITORIA DA CONQUISTA;116;806,6;-14.73489475;-40.64877613;3
1358;2024-02-03;SC;PARAISO;282;669,9;-26.637705;-53.634178;2
1359;2024-02-03;SC;BARRA VELHA;101;81,2;-26.6073;-48.724333;7
1360;2024-02-03;ES;SERRA;101;279;-20.218122;-40.339325;29
1361;2024-02-03;MG;MONTES CLAROS;251;523;-16.682184;-43.803516;1
1362;2024-02-03;BA;INHAMBUPE;110;290;-11.82090111;-38.35767177;5
1363;2024-02-03;PR;PIRAQUARA;116;91;-25.4915;-49.11344;2
1364;2024-02-02;GO;JATAI;364;210,3;-17.891758;-51.840656;6
1365;2024-02-03;MS;RIBAS DO RIO PARDO;262;209,2;-20.46560596;-53.471373;2
1366;2024-02-02;GO;MINEIROS;364;291,7;-17.592016;-52.486064;3
1367;2024-02-03;PA;TRAIRAO;163;591;-4.90250197;-56.18616339;11
1368;2024-02-02;AC;FEIJO;364;515;-8.1903642269;-70.5572690194;3
1369;2024-02-03;SP;MIRACATU;116;349;-24.05190879;-47.213052;17
1370;2024-02-03;MT;PEIXOTO DE AZEVEDO;163;1033;-10.3429349;-55.04102846;7
1371;2024-02-03;MG;ITABIRITO;40;588;-20.35149094;-43.91313094;17
1372;2024-02-03;GO;VILA BOA;20;91;-15.02026;-47.046417;3
1373;2024-02-03;MG;CARMO DA CACHOEIRA;381;720,8;-21.46061202;-45.20743901;2
1374;2024-02-03;MG;SAO GONCALO DO RIO ABAIXO;381;384;-19.83443178;-43.35093867;4
1375;2024-02-03;MG;CLARO DOS POCOES;365;45,5;-16.91338837;-44.20830575;6
1376;2024-02-03;PR;SAO JOSE DOS PINHAIS;277;63,2;-25.54036665;-49.06301737;4
1377;2024-02-03;GO;ABADIANIA;60;51,9;-16.168616;-48.638241;2
1378;2024-02-03;MG;ITAGUARA;381;560;-20.38551554;-44.48916608;13
1379;2024-02-03;RS;FREDERICO WESTPHALEN;386;22;-27.275194;-53.353176;2
1380;2024-02-03;AL;PILAR;101;100;-9.56369581;-35.97111969;2
1381;2024-02-03;RJ;DUQUE DE CAXIAS;40;119;-22.76375592;-43.28683062;63
1382;2024-02-03;RJ;PETROPOLIS;495;22;-22.40775537;-43.08365822;4
1383;2024-02-03;PR;CURITIBA;376;591;-25.45999605;-49.35895013;22
1384;2024-02-03;MG;CAREACU;381;817,4;-22.09779644;-45.71786074;5
1385;2024-02-03;SC;PALHOCA;101;237,9;-27.8438031;-48.6355409;4
1386;2024-02-03;PR;JACAREZINHO;153;18,3;-23.14821281;-49.95294571;4
1387;2024-01-17;BA;ITATIM;116;529,3;-12.740198;-39.786502;8
1388;2024-02-03;BA;JEQUIE;116;691;-13.94789006;-40.16494773;5
1389;2024-02-03;PE;GARANHUNS;423;97,3;-8.8796227;-36.49484286;10
1390;2024-02-03;RJ;CAMPOS DOS GOYTACAZES;101;19;-21.37421125;-41.34253394;2
1391;2024-02-03;MS;ANASTACIO;262;491,8;-20.50107013;-55.82486196;2
1392;2024-02-03;PR;CANDOI;373;401;-25.57658993;-52.05533419;5
1393;2024-02-03;SP;SAO JOSE DOS CAMPOS;116;137;-23.15300766;-45.78709317;32
1394;2024-02-03;MT;RONDONOPOLIS;163;72,5;-16.88528221;-54.71596956;2
1395;2024-02-03;BA;JUAZEIRO;407;37,6;-9.70639516;-40.36659835;4
1396;2024-02-03;MG;CONGONHAS;40;605;-20.4679836;-43.8407073;2
1397;2024-02-03;PR;MARINGA;376;170,4;-23.41595703;-51.97950402;8
1398;2024-02-04;TO;MIRANORTE;153;408,7;-9.48122494;-48.58319433;3
1399;2024-02-04;ES;SAO MATEUS;101;74;-18.80685577;-39.8956893;8
1400;2024-02-04;PE;SERRA TALHADA;232;439,8;-8.012299;-38.556566;6
1401;2024-02-04;RS;MAQUINE;101;67;-29.725468;-50.199816;2
1402;2024-01-24;BA;SEABRA;242;405;-12.48810878;-41.72887312;4
1403;2024-02-04;TO;PRESIDENTE KENNEDY;153;297,8;-8.50685805;-48.48795923;7
1404;2024-02-03;PA;BOM JESUS DO TOCANTINS;222;218;-5.180754;-48.979069;3
1405;2024-02-03;MG;IBIA;262;651;-19.569754;-46.658166;2
1406;2024-02-04;MG;UBERLANDIA;365;621,5;-18.9048022;-48.29052803;10
1407;2024-02-04;PA;ITAITUBA;230;1126;-4.31664891;-55.95736027;2
1408;2024-02-03;BA;RAFAEL JAMBEIRO;242;156;-12.505998;-39.655906;8
1409;2024-02-03;MT;TERRA NOVA DO NORTE;163;1004;-10.58824596;-55.09321322;5
1410;2024-02-04;MG;SAO SEBASTIAO DA BELA VISTA;381;837,5;-22.18544691;-45.84411022;7
1411;2024-02-04;MT;SORRISO;163;768;-12.53807594;-55.70640432;7
1412;2024-02-04;BA;ITAMARAJU;101;819,6;-17.106572;-39.561826;4
1413;2024-02-04;GO;BOM JESUS DE GOIAS;452;145,5;-18.28004135;-49.62383116;8
1414;2024-02-04;MT;RONDONOPOLIS;364;193;-16.53246336;-54.58496737;6
1415;2024-02-04;RJ;CAMPOS DOS GOYTACAZES;101;69;-21.77624383;-41.3653321;17
1416;2024-02-04;MT;NOVA XAVANTINA;158;634;-14.53357488;-52.33600203;2
1417;2024-02-04;PB;CACHOEIRA DOS INDIOS;116;12,1;-6.993578;-38.746815;3
1418;2024-02-04;RJ;PIRAI;116;224;-22.68709335;-43.81058612;10
1419;2024-02-04;BA;BOA NOVA;116;727,7;-14.292788;-40.310431;7
1420;2024-02-04;MG;MONTES CLAROS;365;16,8;-16.86881617;-44.01763824;4
1421;2024-02-04;ES;VIANA;262;17,5;-20.38635961;-40.47272969;16
1422;2024-02-04;DF;BRASILIA;20;11;-15.64654;-47.766422;22
1423;2024-02-03;MT;ITAUBA;163;934;-11.13682296;-55.31295921;20
1424;2024-02-04;MT;NOVA MUTUM;163;573;-14.13823325;-56.10402945;12
1425;2024-02-04;PR;PONTA GROSSA;373;174;-25.07594908;-50.20995715;12
1426;2024-02-04;RO;ALTO PARAISO;364;559;-9.57083902;-63.07461536;5
1427;2024-02-04;BA;PAULO AFONSO;110;11,7;-9.54994104;-38.22123966;2
1428;2024-02-04;MG;SALINAS;251;323,9;-16.22966821;-42.37541477;3
1429;2024-02-04;RJ;GUAPIMIRIM;116;111;-22.55838319;-42.99482067;4
1430;2024-02-04;SC;BARRA VELHA;101;81;-26.60256101;-48.72553524;17
1431;2024-02-04;RS;POUSO NOVO;386;306,5;-29.202335;-52.183838;31
1432;2024-02-04;SC;PONTE ALTA DO NORTE;116;169,8;-27.190528;-50.4636833;7
1433;2024-02-04;ES;GUARAPARI;101;320,8;-20.51234104;-40.47639192;4
1434;2024-02-04;BA;SERRINHA;116;363,3;-11.70477008;-38.98661613;2
1435;2024-02-04;SE;SAO FRANCISCO;101;17;-10.33831807;-36.89396364;2
1436;2024-02-04;MS;RIBAS DO RIO PARDO;262;240;-20.45766622;-53.76551998;6
1437;2024-02-04;MG;GRAO MOGOL;251;371,9;-16.28786559;-42.6965112;5
1438;2024-02-04;MT;PRIMAVERA DO LESTE;70;243;-15.61715656;-54.05279308;2
1439;2024-02-05;MG;FRUTA DE LEITE;251;330,3;-16.24625819;-42.38203526;2
1440;2024-02-05;MG;SAO SEBASTIAO DA BELA VISTA;381;831,7;-22.12122742;-45.78610852;7
1441;2024-02-04;PR;MORRETES;277;21;-25.55074432;-48.67135211;5
1442;2024-02-05;RS;CAPAO DO LEAO;293;14;-31.75233352;-52.4609969;4
1443;2024-02-05;MG;LIMA DUARTE;267;166,2;-21.85623502;-43.835793;6
1444;2024-02-03;PB;CAMPINA GRANDE;230;151,1;-7.2587;-35.8778;6
1445;2024-02-05;MG;FRUTAL;364;32;-19.99890842;-48.95236373;2
1446;2024-02-05;SC;ITAJAI;101;122;-26.92955916;-48.70499836;17
1447;2024-02-05;MG;JOAO PINHEIRO;40;134,5;-17.71751498;-46.25002099;3
1448;2024-02-05;RS;CAPAO BONITO DO SUL;285;178,6;-28.29376273;-51.39163971;4
1449;2024-02-05;SP;JACUPIRANGA;116;477,3;-24.69842695;-48.00304804;11
1450;2024-02-05;RS;FONTOURA XAVIER;386;265;-28.928402;-52.379761;3
1451;2024-02-05;BA;IBIRAPUA;101;907,1;-17.79805405;-39.78183746;3
1452;2024-02-05;BA;SAO JOSE DA VITORIA;101;535;-15.15775202;-39.41074199;16
1453;2024-01-13;RR;BOA VISTA;401;10;2.80229396;-60.68243402;2
1454;2024-02-05;SC;ASCURRA;470;90;-26.969337;-49.367718;5
1455;2024-02-05;MG;JUIZ DE FORA;267;80,5;-21.75478617;-43.21241781;10
1456;2024-02-05;RS;VILA FLORES;470;165;-28.84169703;-51.57429796;6
1457;2024-02-05;RN;CAICO;427;116,1;-6.43957995;-37.18605995;3
1458;2024-02-05;RJ;ITATIAIA;116;315;-22.46045833;-44.47218299;9
1459;2024-02-05;ES;COLATINA;259;49,1;-19.511741;-40.6047251;2
1460;2024-02-05;RS;CRUZ ALTA;158;197,7;-28.65940526;-53.59096461;2
1461;2024-02-05;RS;SAO JOSE DAS MISSOES;386;101,5;-27.75992477;-53.11134338;2
1462;2024-02-05;MG;CONGONHAS;40;610;-20.5019758;-43.83840447;11
1463;2024-02-05;PE;MORENO;232;21;-8.09580234;-35.08012588;4
1464;2024-02-05;GO;SAO FRANCISCO DE GOIAS;153;373,1;-15.860242;-49.261246;2
1465;2024-02-05;RS;JAGUARAO;116;638;-32.43814713;-53.25732287;2
1466;2024-02-05;PE;RECIFE;232;7,1;-8.07333497;-34.96184301;36
1467;2024-02-05;RJ;PETROPOLIS;40;72;-22.46352401;-43.22321103;3
1468;2024-02-05;MG;CAMPOS ALTOS;262;604,1;-19.64303802;-46.24914201;1
1469;2024-02-05;PR;NOVA LARANJEIRAS;277;473,8;-25.31228529;-52.52903626;2
1470;2024-02-05;RJ;PETROPOLIS;40;75;-22.46857126;-43.22958698;13
1471;2024-01-28;MG;PRATA;153;135;-19.52339386;-48.83222564;2
1472;2024-01-27;RJ;ITABORAI;101;297;-22.76942037;-42.91873581;58
1473;2024-02-05;RS;VACARIA;116;44;-28.53962512;-50.96996084;3
1474;2024-02-05;MS;BANDEIRANTES;163;543;-19.9894849;-54.39027124;7
1475;2024-02-05;PR;PARANAGUA;277;0,5;-25.52471;-48.547464;2
1476;2024-02-05;GO;JARAGUA;153;372,8;-15.843293;-49.270893;4
1477;2024-02-05;SC;PONTE ALTA DO NORTE;116;166,4;-27.16174113;-50.46682477;1
1478;2024-02-05;SC;VARGEM BONITA;153;46;-26.890306;-51.763412;2
1479;2024-02-05;MG;RIBEIRAO DAS NEVES;40;509;-19.76728744;-44.12855905;13
1480;2024-02-06;SC;BLUMENAU;470;50,7;-26.86102183;-49.08176422;2
1481;2024-02-06;MA;SAO LUIS;135;9;-2.66480672;-44.28647757;4
1482;2024-02-06;SC;CAMPOS NOVOS;470;356,2;-27.596577;-51.473782;1
1483;2024-02-06;RS;RIO PARDO;471;178;-30.01470626;-52.3696804;2
1484;2024-01-20;ES;LINHARES;101;133;-19.25700702;-40.08983616;11
1485;2024-02-06;PR;PALMEIRA;277;196;-25.43726675;-50.16777812;11
1486;2024-02-06;CE;BARRO;116;466;-7.2382616667;-38.8407316667;3
1487;2024-02-06;SC;JOACABA;282;402;-27.115656;-51.631065;7
1488;2024-02-06;RJ;RIO DE JANEIRO;101;383;-22.879342;-43.621665;3
1489;2024-02-06;RJ;DUQUE DE CAXIAS;40;117;-22.745676;-43.2881;33
1490;2024-02-05;BA;NOVA SOURE;110;213,9;-11.21968195;-38.48769686;2
1491;2024-02-06;BA;FEIRA DE SANTANA;324;487;-12.03364074;-39.01582097;4
1492;2024-02-06;CE;SAO GONCALO DO AMARANTE;222;75,1;-3.671003;-39.21995;1
1493;2024-02-06;SC;JOINVILLE;101;46,4;-26.33150083;-48.86187762;16
1494;2024-02-06;RS;LAJEADO;386;347,2;-29.45267758;-51.96422696;8
1495;2024-02-06;MT;ROSARIO OESTE;364;524,6;-15.05826498;-56.51689234;19
1496;2024-02-06;RS;CACAPAVA DO SUL;290;322,6;-30.37617039;-53.42125654;4
1497;2024-02-06;SC;CUNHA PORA;282;599;-26.820206;-53.155052;6
1498;2024-02-06;MT;GENERAL CARNEIRO;70;85;-15.67421693;-52.81408803;4
1499;2024-02-06;PA;PARAGOMINAS;10;175,9;-2.89485593;-47.43342876;1
1500;2024-02-06;PE;SAO LOURENCO DA MATA;408;97;-8.02843077;-35.03684556;2
1501;2024-02-06;TO;GUARAI;153;307;-8.59672901;-48.48314149;4
1502;2024-02-02;PR;MANDIRITUBA;116;152;-25.83236296;-49.33609707;23
1503;2024-01-20;BA;JEREMOABO;110;98;-10.28052905;-38.31012085;2
1504;2024-02-06;RN;NATAL;101;97,9;-5.85758898;-35.21271205;19
1505;2024-02-06;PR;LARANJEIRAS DO SUL;277;456,6;-25.385905;-52.413842;2
1506;2024-02-06;RJ;ITAPERUNA;356;54;-21.27393692;-41.74440596;3
1507;2024-02-06;PR;BOM JESUS DO SUL;163;19,1;-26.2185571;-53.63797285;3
1508;2024-02-06;MG;CAMPANHA;381;766;-21.76294597;-45.41241603;4
1509;2024-02-06;RS;ARROIO DOS RATOS;290;147;-30.10755;-51.675858;4
1510;2024-02-06;MS;SAO GABRIEL DO OESTE;163;610,7;-19.42512336;-54.54549909;8
1511;2024-02-06;RJ;PETROPOLIS;40;45;-22.27821816;-43.11580971;16
1512;2024-02-06;RS;CRUZ ALTA;158;223,3;-28.88719277;-53.61882847;3
1513;2024-02-06;MG;BETIM;381;489;-19.96245618;-44.16455495;36
1514;2024-01-05;PR;MARECHAL CANDIDO RONDON;163;292;-24.52360956;-54.06210088;6
1515;2024-02-06;BA;FEIRA DE SANTANA;324;516;-12.2417119;-38.93768485;26
1516;2024-02-06;RS;PASSO FUNDO;285;314;-28.245794;-52.572262;5
1517;2024-02-06;RJ;TERESOPOLIS;116;69;-22.31064086;-42.93779076;2
1518;2024-02-06;PR;CORBELIA;369;482,5;-24.6524;-53.2195;4
1519;2024-02-06;SC;TUBARAO;101;335,9;-28.46927473;-49.01557908;15
1520;2024-02-06;GO;POSSE;20;232;-14.087328;-46.296154;2
1521;2024-02-06;BA;ALAGOINHAS;101;99;-12.132932;-38.39226983;4
1522;2024-02-06;PR;ANDIRA;369;39,1;-23.05688053;-50.24630427;3
1523;2024-02-06;SC;PAPANDUVA;116;58;-26.37763463;-50.19755176;2
1524;2024-02-06;MA;SAO LUIS;135;3;-2.53073;-44.3068;89
1525;2024-02-06;MG;CAMBUI;381;905,6;-22.66343332;-46.0909026;13
1526;2024-02-06;MS;PORTO MURTINHO;267;654;-21.72869184;-57.60706991;1
